SALE TYPE,SOLD DATE,PROPERTY TYPE,ADDRESS,CITY,STATE OR PROVINCE,ZIP OR POSTAL CODE,PRICE,BEDS,BATHS,LOCATION,SQUARE FEET,LOT SIZE,YEAR BUILT,DAYS ON MARKET,$/SQUARE FEET,HOA/MONTH,STATUS,NEXT OPEN HOUSE START TIME,NEXT OPEN HOUSE END TIME,URL (SEE https://www.redfin.com/buy-a-home/comparative-market-analysis FOR INFO ON PRICING),SOURCE,MLS#,FAVORITE,INTERESTED,LATITUDE,LONGITUDE
PAST SALE,February-9-2022,Condo/Co-op,180 COMMONWEALTH Ave #7,Boston,MA,02116,1150000,3,2.0,Back Bay,1070,1070,1925,38,1075,640,Sold,,,https://www.redfin.com/MA/Boston/180-Commonwealth-Ave-02116/unit-7/home/9265011,MLS PIN,72874825,N,Y,42.3510958,-71.0795365
PAST SALE,March-15-2022,Condo/Co-op,3 Englewood Ave #15,Brookline,MA,02445,495000,1,1.0,Brookline,572,,1905,4,865,238,Sold,,,https://www.redfin.com/MA/Brookline/3-Englewood-Ave-02445/unit-15/home/11456484,MLS PIN,72938942,N,Y,42.3375219,-71.1451084
PAST SALE,January-4-2022,Townhouse,132 Newton St #132,Boston,MA,02135,1050000,3,2.5,Boston,2194,,2018,74,479,246,Sold,,,https://www.redfin.com/MA/Boston/132-Newton-St-02135/unit-132/home/147581941,MLS PIN,72899347,N,Y,42.3558343,-71.1683736
PAST SALE,March-2-2022,Single Family Residential,125 Woodrow Ave,Boston,MA,02124,460000,3,2.0,Boston,1170,4059,1991,17,393,,Sold,,,https://www.redfin.com/MA/Boston/125-Woodrow-Ave-02124/home/9063414,MLS PIN,72924633,N,Y,42.2873179,-71.0838968
PAST SALE,January-14-2022,Single Family Residential,159 Lexington St,Boston,MA,02128,725000,3,1.5,Boston,2411,3750,1905,64,301,,Sold,,,https://www.redfin.com/MA/Boston/159-Lexington-St-02128/home/9119829,MLS PIN,72905432,N,Y,42.378872,-71.0339211
PAST SALE,March-10-2022,Condo/Co-op,43 Barry St #3,Boston,MA,02125,435000,3,1.0,Boston,933,933,1989,9,466,250,Sold,,,https://www.redfin.com/MA/Boston/43-Barry-St-02125/unit-3/home/9063749,MLS PIN,72924135,N,Y,42.3087753,-71.0686496
PAST SALE,March-18-2022,Condo/Co-op,27 Hosmer St #1,Boston,MA,02126,325000,2,1.0,Boston,896,,1905,1,363,250,Sold,,,https://www.redfin.com/MA/Boston/27-Hosmer-St-02126/unit-1/home/12428449,MLS PIN,72937374,N,Y,42.2807266,-71.0907034
PAST SALE,March-17-2022,Single Family Residential,181 Sycamore St,Boston,MA,02131,740000,3,1.0,Boston,1409,3600,1900,2,525,,Sold,,,https://www.redfin.com/MA/Roslindale/181-Sycamore-St-02131/home/11836212,MLS PIN,72943786,N,Y,42.2865813,-71.1224544
PAST SALE,,Condo/Co-op,56 Percival St #1,Dorchester,MA,02122,430000,2,1.0,,1008,,1905,,427,,,,,https://www.redfin.com/MA/Dorchester/56-Percival-St-02122/unit-1/home/9063723,,,N,Y,42.30573,-71.0632177
PAST SALE,December-20-2021,Single Family Residential,508 Metropolitan Ave,Boston,MA,02136,605000,4,1.5,Boston,1730,8960,1930,89,350,,Sold,,,https://www.redfin.com/MA/Hyde-Park/508-Metropolitan-Ave-02136/home/9123750,MLS PIN,72902434,N,Y,42.2688821,-71.1193906
PAST SALE,January-14-2022,Condo/Co-op,15 Harvest St #3,Boston,MA,02125,475000,2,1.0,Boston,874,874,1896,64,543,125,Sold,,,https://www.redfin.com/MA/Boston/15-Harvest-St-02125/unit-3/home/28646735,MLS PIN,72896029,N,Y,42.3229186,-71.0575051
PAST SALE,January-13-2022,Single Family Residential,5 Hobson St,Boston,MA,02131,788803,3,1.5,Boston,1450,4256,1930,65,544,,Sold,,,https://www.redfin.com/MA/Roslindale/5-Hobson-St-02131/home/9183708,MLS PIN,72924612,N,Y,42.2799315,-71.1417184
PAST SALE,February-9-2022,Single Family Residential,191 Orange Steet,Boston,MA,02131,595000,3,1.5,Boston,1475,6169,1920,38,403,,Sold,,,https://www.redfin.com/MA/Roslindale/191-Orange-St-02131/home/9183701,MLS PIN,72926658,N,Y,42.2796239,-71.1414399
PAST SALE,December-28-2021,Condo/Co-op,301 Allston St #1,Boston,MA,02135,380000,2,1.0,Boston,807,807,1910,81,471,510,Sold,,,https://www.redfin.com/MA/Brighton/301-Allston-St-02135/unit-1/home/9223552,MLS PIN,72916330,N,Y,42.3443574,-71.1408266
PAST SALE,January-14-2022,Condo/Co-op,1933 Commonwealth Ave #303,Boston,MA,02135,595234,2,2.0,Brighton,1148,,1988,64,518,570,Sold,,,https://www.redfin.com/MA/Brighton/1933-Commonwealth-Ave-02135/unit-303/home/9006239,MLS PIN,72906913,N,Y,42.33927,-71.1557596
PAST SALE,January-7-2022,Multi-Family (2-4 Unit),7 Priscilla Rd,Boston,MA,02135,1300000,10,3.5,Boston,3445,5100,1930,71,377,,Sold,,,https://www.redfin.com/MA/Boston/7-Priscilla-Rd-02135/home/9020227,MLS PIN,72908968,N,Y,42.3448246,-71.1526033
PAST SALE,,Condo/Co-op,1868 Commonwealth Ave #6,Boston,MA,02135,,1,1.0,,790,,1930,,,,Sold,,,https://www.redfin.com/MA/Boston/1868-Commonwealth-Ave-02135/unit-6/home/9028102,MLS PIN,,N,Y,42.3383077,-71.1523582
PAST SALE,February-8-2022,Single Family Residential,92 Brooks St,Boston,MA,02135,940000,5,1.5,Oak Square,2738,7517,1920,39,343,,Sold,,,https://www.redfin.com/MA/Brighton/92-Brooks-St-02135/home/9030495,MLS PIN,72926607,N,Y,42.354488,-71.1626033
PAST SALE,January-28-2022,Condo/Co-op,1896 Beacon St #3,Brookline,MA,02445,899000,3,2.0,Brookline,1240,,1905,50,725,425,Sold,,,https://www.redfin.com/MA/Brookline/1896-Beacon-St-02445/unit-3/home/11457790,MLS PIN,72907009,N,Y,42.3369522,-71.1477661
PAST SALE,February-7-2022,Single Family Residential,6 Reservoir Ave,Newton,MA,02467,1650000,4,3.0,Newton,3982,15732,1952,40,414,,Sold,,,https://www.redfin.com/MA/Chestnut-Hill/6-Reservoir-Ave-02467/home/11463938,MLS PIN,72918456,N,Y,42.3334053,-71.1652981
PAST SALE,December-22-2021,Single Family Residential,8 Rogers St,Newton,MA,02458,785000,3,2.0,Farlow Hill,2496,3940,1930,87,315,,Sold,,,https://www.redfin.com/MA/Newton/8-Rogers-St-02458/home/11473935,MLS PIN,72914289,N,Y,42.349806,-71.1750452
PAST SALE,,Condo/Co-op,62 Newton St #62,Boston,MA,02135,820000,3,2.5,,1600,,2013,,513,,,,,https://www.redfin.com/MA/Boston/62-Newton-St-02135/unit-62/home/45493842,,,N,Y,42.3568431,-71.1655302
PAST SALE,March-7-2022,Condo/Co-op,65 Lanark Rd #9,Boston,MA,02135,575000,3,1.0,Aberdeen,1102,1102,1910,12,522,438,Sold,,,https://www.redfin.com/MA/Boston/65-Lanark-Rd-02135/unit-9/home/9004790,MLS PIN,72943225,N,Y,42.3402038,-71.1464998
PAST SALE,March-8-2022,Single Family Residential,31 Dustin St,Boston,MA,02135,806000,5,2.5,Brighton,2295,5280,1900,11,351,,Sold,,,https://www.redfin.com/MA/Brighton/31-Dustin-St-02135/home/9010889,MLS PIN,72934895,N,Y,42.3516716,-71.1458032
PAST SALE,February-9-2022,Townhouse,62 Newton St #62,Boston,MA,02135,820000,3,2.5,Brighton,1600,1600,2013,38,513,215,Sold,,,https://www.redfin.com/MA/Boston/62-Newton-St-02135/unit-62/home/113229107,MLS PIN,72910539,N,Y,42.3568852,-71.1655854
PAST SALE,February-28-2022,Condo/Co-op,76 Turner St #2,Boston,MA,02135,800000,3,2.0,Brighton,1009,,1915,19,793,250,Sold,,,https://www.redfin.com/MA/Boston/76-Turner-St-02135/unit-2/home/177921199,MLS PIN,72935611,N,Y,42.3517902,-71.1622347
PAST SALE,February-28-2022,Condo/Co-op,34 Playstead Rd #1,Newton,MA,02458,721138,2,1.0,Newton Corner,1158,3960,1914,19,623,197,Sold,,,https://www.redfin.com/MA/Newton/34-Playstead-Rd-02458/unit-1/home/11472132,MLS PIN,72930789,N,Y,42.3526582,-71.175236
PAST SALE,March-18-2022,Condo/Co-op,199 Coolidge Ave #302,Watertown,MA,02472,525000,2,2.0,Watertown,1408,,1986,1,373,1431,Sold,,,https://www.redfin.com/MA/Watertown/199-Coolidge-Ave-02472/unit-302/home/11702649,MLS PIN,72941661,N,Y,42.365614,-71.1462441
PAST SALE,February-4-2022,Single Family Residential,22 Sumner St,Dedham,MA,02026,580000,3,1.5,Dedham,1402,4650,1939,43,414,,Sold,,,https://www.redfin.com/MA/Dedham/22-Sumner-St-02026/home/8850114,MLS PIN,72916547,N,Y,42.2568405,-71.1638592
PAST SALE,January-21-2022,Single Family Residential,55 Sanford St,Boston,MA,02136,699000,4,2.0,Readville,2098,6000,1968,57,333,,Sold,,,https://www.redfin.com/MA/Hyde-Park/55-Sanford-St-02136/home/9136025,MLS PIN,72904363,N,Y,42.2423244,-71.1430181
PAST SALE,January-26-2022,Townhouse,23 Goethe St #2,Boston,MA,02132,450000,3,2.0,West Roxbury,1370,,1890,52,328,200,Sold,,,https://www.redfin.com/MA/Boston/23-Goethe-St-02132/unit-2/home/109243692,MLS PIN,72902064,N,Y,42.2566289,-71.1587453
PAST SALE,December-29-2021,Condo/Co-op,72 Dix St #1,Boston,MA,02122,449000,3,1.5,Dorchester's Fields Corner,1030,,1905,80,436,137,Sold,,,https://www.redfin.com/MA/Dorchester/72-Dix-St-02122/unit-1/home/21719371,MLS PIN,72911621,N,Y,42.2960407,-71.0584821
PAST SALE,December-22-2021,Condo/Co-op,351 Commonwealth Ave #3,Boston,MA,02115,525000,0,1.0,Back Bay,455,455,1894,87,1154,232,Sold,,,https://www.redfin.com/MA/Boston/351-Commonwealth-Ave-02115/unit-3/home/9243534,MLS PIN,72912316,N,Y,42.3496244,-71.0883306
PAST SALE,December-23-2021,Condo/Co-op,1 Nassau St #1607,Boston,MA,02111,890000,2,2.0,Midtown,1099,1099,2004,86,810,988,Sold,,,https://www.redfin.com/MA/Boston/1-Nassau-St-02111/unit-1607/home/9326198,MLS PIN,72787728,N,Y,42.3487275,-71.0629888
PAST SALE,December-30-2021,Condo/Co-op,2 Avery Unit 21H,Boston,MA,02111,1712500,2,2.5,Midtown,1573,,2000,79,1089,2231,Sold,,,https://www.redfin.com/MA/Boston/2-Avery-St-02111/unit-21H/home/11837560,MLS PIN,72826402,N,Y,42.3528703,-71.0629976
PAST SALE,December-30-2021,Condo/Co-op,10 Coffey St #9,Boston,MA,02122,349000,2,1.0,Boston,779,779,1965,79,448,395,Sold,,,https://www.redfin.com/MA/Dorchester/10-Coffey-St-02122/unit-9/home/9064187,MLS PIN,72911900,N,Y,42.289021,-71.0505661
PAST SALE,February-10-2022,Multi-Family (2-4 Unit),21 Aspinwall Rd,Boston,MA,02124,830000,7,3.0,Dorchester's Codman Square,2514,6743,1900,37,330,,Sold,,,https://www.redfin.com/MA/Boston/21-Aspinwall-Rd-02124/home/9073373,MLS PIN,72928183,N,Y,42.2918489,-71.0731061
PAST SALE,March-4-2022,Multi-Family (2-4 Unit),50 Wainwright St,Boston,MA,02124,900000,5,2.0,Dorchester's Ashmont,2977,2870,1910,15,302,,Sold,,,https://www.redfin.com/MA/Boston/50-Wainwright-St-02124/home/9075534,MLS PIN,72902607,N,Y,42.289712,-71.0664675
PAST SALE,February-7-2022,Condo/Co-op,545 Adams St #31,Boston,MA,02122,357021,2,1.0,Dorchester,686,,1965,40,520,364,Sold,,,https://www.redfin.com/MA/Boston/545-Adams-St-02122/unit-31/home/9084352,MLS PIN,72919203,N,Y,42.291006,-71.0575062
PAST SALE,February-14-2022,Multi-Family (2-4 Unit),84-86 Codman Hill Ave,Boston,MA,02124,660000,6,2.0,Boston,3163,5500,1928,33,209,,Sold,,,https://www.redfin.com/MA/Boston/84-Codman-Hill-Ave-02124/home/9099021,MLS PIN,72853755,N,Y,42.2788719,-71.0744182
PAST SALE,March-4-2022,Multi-Family (2-4 Unit),67 Standard St,Boston,MA,02126,790000,8,3.0,Mattapan,2682,6518,1915,15,295,,Sold,,,https://www.redfin.com/MA/Boston/67-Standard-St-02126/home/9155270,MLS PIN,72924601,N,Y,42.2741682,-71.0792809
PAST SALE,January-3-2022,Multi-Family (2-4 Unit),20 Harlem St,Boston,MA,02121,1115000,8,3.0,Boston,4029,5079,1910,75,277,,Sold,,,https://www.redfin.com/MA/Boston/20-Harlem-St-02121/home/11732789,MLS PIN,72911314,N,Y,42.3003332,-71.081231
PAST SALE,January-14-2022,Townhouse,44 Chickatawbut #2,Boston,MA,02122,580000,3,1.5,Dorchester's Neponset,1127,,1882,64,515,160,Sold,,,https://www.redfin.com/MA/Dorchester/44-Chickatawbut-St-02122/unit-2/home/11920849,MLS PIN,72926606,N,Y,42.2858515,-71.0482214
PAST SALE,February-17-2022,Condo/Co-op,890 Adams St #1,Boston,MA,02124,520000,3,2.0,Dorchester,1569,,1921,30,331,291,Sold,,,https://www.redfin.com/MA/Boston/890-Adams-St-02124/unit-1/home/12431005,MLS PIN,72931016,N,Y,42.2808951,-71.0584624
PAST SALE,March-7-2022,Condo/Co-op,501 Talbot Ave #1,Boston,MA,02124,475000,3,1.0,Dorchester's Ashmont,1315,,1905,12,361,396,Sold,,,https://www.redfin.com/MA/Boston/501-Talbot-Ave-02124/unit-1/home/9330640,MLS PIN,72916213,N,Y,42.2878011,-71.0657247
PAST SALE,March-8-2022,Multi-Family (2-4 Unit),60 Woolson St,Boston,MA,02126,1050000,6,3.0,Mattapan,3500,3138,1905,11,300,,Sold,,,https://www.redfin.com/MA/Boston/60-Woolson-St-02126/home/11836007,MLS PIN,72934299,N,Y,42.2812905,-71.089216
PAST SALE,,Condo/Co-op,51 Coffey St Unit 51B,Boston,MA,02122,900000,3,3.5,,1973,,2017,,456,,,,,https://www.redfin.com/MA/Boston/51-Coffey-St-02122/unit-51B/home/167702733,,,N,Y,42.2888938,-71.0483731
PAST SALE,March-7-2022,Condo/Co-op,102 Neponset Ave #6,Boston,MA,02122,619000,2,2.0,Dorchester,995,,2021,12,622,146,Sold,,,https://www.redfin.com/MA/Dorchester/102-Neponset-Ave-02122/unit-6/home/175974349,MLS PIN,72876792,N,Y,42.2949748,-71.0526786
PAST SALE,March-11-2022,Condo/Co-op,640 Adams St #2,Boston,MA,02122,670000,2,2.0,Dorchester,1132,3999,1905,8,592,199,Sold,,,https://www.redfin.com/MA/Dorchester/640-Adams-St-02122/unit-2/home/176444239,MLS PIN,72897031,N,Y,42.2880347,-71.0549071
PAST SALE,March-2-2022,Condo/Co-op,86 Bloomfield Unit 1,Boston,MA,02124,499000,2,2.0,Dorchester's Fields Corner,855,,1900,17,584,175,Sold,,,https://www.redfin.com/MA/Boston/86-Bloomfield-St-02124/unit-1/home/176849106,MLS PIN,72932188,N,Y,42.2985674,-71.0695781
PAST SALE,February-3-2022,Condo/Co-op,1973 Dorchester Ave #5001,Boston,MA,02124,420000,1,1.0,Dorchester,690,,2019,44,609,368,Sold,,,https://www.redfin.com/MA/Boston/1973-Dorchester-Ave-02124/unit-5001/home/176978200,MLS PIN,72913200,N,Y,42.2833381,-71.06511
PAST SALE,March-11-2022,Townhouse,39 Old Morton St #1,Boston,MA,02126,690000,2,2.5,Boston,1249,7793,2021,8,552,200,Sold,,,https://www.redfin.com/MA/Mattapan/39-Old-Morton-St-02126/unit-1/home/12175976,MLS PIN,72951766,N,Y,42.2733673,-71.0720022
PAST SALE,February-23-2022,Condo/Co-op,115 Neponset Ave #3,Boston,MA,02122,442000,3,1.0,Dorchester,1247,1247,1905,24,354,285,Sold,,,https://www.redfin.com/MA/Boston/115-Neponset-Ave-02122/unit-3/home/9312017,MLS PIN,72905864,N,Y,42.2945314,-71.0529107
PAST SALE,February-23-2022,Condo/Co-op,1241-1255 Adams St Unit WM301,Boston,MA,02124,950000,1,2.0,Dorchester's Lower Mills,1927,,1900,24,493,1104,Sold,,,https://www.redfin.com/MA/Boston/1241-Adams-St-02124/unit-WM301/home/85680400,MLS PIN,72911801,N,Y,42.2720044,-71.0681653
PAST SALE,March-15-2022,Condo/Co-op,16 Train St #3,Boston,MA,02122,620000,3,1.0,Dorchester,1138,5087,1905,4,545,275,Sold,,,https://www.redfin.com/MA/Boston/16-Train-St-02122/unit-3/home/9320658,MLS PIN,72930980,N,Y,42.2954458,-71.0550002
PAST SALE,March-16-2022,Condo/Co-op,640 Adams St #3,Boston,MA,02122,691500,2,2.0,Dorchester,1146,3999,1905,3,603,199,Sold,,,https://www.redfin.com/MA/Dorchester/640-Adams-St-02122/unit-3/home/176729475,MLS PIN,72908654,N,Y,42.2880347,-71.0549071
PAST SALE,February-9-2022,Multi-Family (2-4 Unit),36 Annavoy St,Boston,MA,02128,900000,4,3.5,East Boston's Orient Heights,2115,6103,1920,38,426,,Sold,,,https://www.redfin.com/MA/Boston/36-Annavoy-St-02128/home/9108581,MLS PIN,72864385,N,Y,42.3821145,-70.9984931
PAST SALE,January-3-2022,Multi-Family (2-4 Unit),92-94 Saint Andrew Rd,Boston,MA,02128,1155000,8,3.0,East Boston's Orient Heights,3424,4500,1910,75,337,,Sold,,,https://www.redfin.com/MA/Boston/92-St-Andrew-Rd-02128/home/9110487,MLS PIN,72891575,N,Y,42.3841514,-71.0012167
PAST SALE,January-21-2022,Multi-Family (2-4 Unit),9 Antrim St,Boston,MA,02128,1075000,8,3.0,East Boston's Orient Heights,3912,3433,1910,57,275,,Sold,,,https://www.redfin.com/MA/Boston/9-Antrim-St-02128/home/9114489,MLS PIN,72892309,N,Y,42.3876559,-71.0055051
PAST SALE,February-24-2022,Condo/Co-op,75 Waldemar Ave #203,Boston,MA,02128,359400,2,1.0,East Boston's Orient Heights,755,755,1970,23,476,286,Sold,,,https://www.redfin.com/MA/Boston/75-Waldemar-Ave-02128/unit-203/home/21718190,MLS PIN,72902777,N,Y,42.3917451,-71.0013461
PAST SALE,December-21-2021,Multi-Family (2-4 Unit),48 Farquhar St,Boston,MA,02131,925000,5,2.0,Roslindale,2548,5000,1910,88,363,,Sold,,,https://www.redfin.com/MA/Roslindale/48-Farquhar-St-02131/home/9170233,MLS PIN,72915470,N,Y,42.2898621,-71.1365866
PAST SALE,December-27-2021,Condo/Co-op,1 Dalton St #2702,Boston,MA,02115,2750000,2,2.5,Back Bay,1425,,2015,82,1930,2311,Sold,,,https://www.redfin.com/MA/Boston/1-Dalton-St-02199/unit-2702/home/175644715,MLS PIN,72879662,N,Y,42.3455258,-71.0840518
PAST SALE,December-23-2021,Multi-Family (2-4 Unit),64 Seaver St,Boston,MA,02121,1250000,13,4.0,Boston,5070,3006,1925,86,247,,Sold,,,https://www.redfin.com/MA/Boston/64-Seaver-St-02121/home/9097464,MLS PIN,72915342,N,Y,42.3115672,-71.0930692
PAST SALE,December-27-2021,Townhouse,14 Lee St #14,Boston,MA,02130,1475000,3,2.5,Jamaica Plain,1895,12600,2021,82,778,310,Sold,,,https://www.redfin.com/MA/Boston/14-Lee-St-02130/unit-14/home/177326864,MLS PIN,72922733,N,Y,42.3075655,-71.111608
PAST SALE,December-30-2021,Single Family Residential,428 Gallivan Blvd,Boston,MA,02124,646000,4,2.0,Dorchester,1476,3143,1925,79,438,,Sold,,,https://www.redfin.com/MA/Boston/428-Gallivan-Blvd-02124/home/9102457,MLS PIN,72897299,N,Y,42.2821487,-71.0591785
PAST SALE,December-30-2021,Condo/Co-op,221 Minot St #1,Boston,MA,02124,315000,2,1.0,Boston,700,,1960,79,450,300,Sold,,,https://www.redfin.com/MA/Boston/221-Minot-St-02124/unit-1/home/9322513,MLS PIN,72908320,N,Y,42.2837451,-71.0562303
PAST SALE,December-28-2021,Condo/Co-op,50-56 Broadlawn Park #519,Boston,MA,02467,351500,1,1.0,Chestnut Hill,777,777,1974,81,452,489,Sold,,,https://www.redfin.com/MA/Chestnut-Hill/50-56-Broadlawn-Park-02467/unit-519/home/9205446,MLS PIN,72902703,N,Y,42.3023918,-71.1639988
PAST SALE,December-20-2021,Single Family Residential,9 Sackville St,Boston,MA,02129,1425000,4,2.5,Charlestown,1824,,1971,89,781,,Sold,,,https://www.redfin.com/MA/Boston/9-Sackville-St-02129/home/9056106,MLS PIN,72908023,N,Y,42.3805675,-71.0649762
PAST SALE,December-21-2021,Condo/Co-op,14 Commonwealth Ct #4,Boston,MA,02135,324000,1,1.0,Brighton,604,604,1964,88,536,255,Sold,,,https://www.redfin.com/MA/Boston/14-Commonwealth-Ct-02135/unit-4/home/9014069,MLS PIN,72920148,N,Y,42.346133,-71.1393279
PAST SALE,December-30-2021,Townhouse,30 Mosely St #30,Boston,MA,02125,655000,4,2.5,Boston,1902,,2001,79,344,250,Sold,,,https://www.redfin.com/MA/Dorchester/30-Moseley-St-02125/unit-30/home/39876963,MLS PIN,72917381,N,Y,42.3199468,-71.055325
PAST SALE,December-22-2021,Single Family Residential,47 Tuttle St,Boston,MA,02125,860000,4,1.5,Dorchester's Savin Hill,2013,3549,1890,87,427,,Sold,,,https://www.redfin.com/MA/Dorchester/47-Tuttle-St-02125/home/9086710,MLS PIN,72905380,N,Y,42.3134475,-71.053375
PAST SALE,December-30-2021,Condo/Co-op,4 Battery Wharf #4402,Boston,MA,02109,1425000,1,1.5,Waterfront,1535,,2008,79,928,1891,Sold,,,https://www.redfin.com/MA/Boston/4-Battery-Wharf-02109/unit-4402/home/14155864,MLS PIN,72820394,N,Y,42.3670325,-71.0501714
PAST SALE,December-20-2021,Condo/Co-op,37 Mount Vernon #2,Boston,MA,02129,890000,2,2.0,Charlestown,1038,,1890,89,857,207,Sold,,,https://www.redfin.com/MA/Boston/37-Mt-Vernon-St-02129/unit-2/home/39968439,MLS PIN,72913135,N,Y,42.3749871,-71.0581222
PAST SALE,December-30-2021,Condo/Co-op,108 Peterborough St Unit 7F,Boston,MA,02215,695000,2,1.0,The Fenway,928,928,1910,79,749,504,Sold,,,https://www.redfin.com/MA/Boston/108-Peterborough-St-02215/unit-7F/home/17062267,MLS PIN,72911286,N,Y,42.3428312,-71.0998703
PAST SALE,December-21-2021,Condo/Co-op,11 Walley St #301,Boston,MA,02128,790000,3,2.0,East Boston,1368,,2021,88,577,535,Sold,,,https://www.redfin.com/MA/Boston/11-Walley-St-02128/unit-301/home/176828980,MLS PIN,72911144,N,Y,42.3897025,-70.9986434
PAST SALE,December-27-2021,Condo/Co-op,60 Newbury #2,Quincy,MA,02171,810000,2,2.0,North Quincy,1362,,2021,82,595,419,Sold,,,https://www.redfin.com/MA/Quincy/60-Newbury-St-02171/unit-2/home/175248497,MLS PIN,72840182,N,Y,42.28025,-71.0389355
PAST SALE,December-22-2021,Single Family Residential,44 Round Hill St,Boston,MA,02130,975000,4,2.5,Jamaica Plain,1775,2800,1900,87,549,,Sold,,,https://www.redfin.com/MA/Jamaica-Plain/44-Round-Hill-St-02130/home/9146891,MLS PIN,72920761,N,Y,42.3244811,-71.1057956
PAST SALE,,Condo/Co-op,45 Green St #2,Jamaica Plain,MA,02130,720000,2,1.0,,1083,,1899,,665,,,,,https://www.redfin.com/MA/Jamaica-Plain/45-Green-St-02130/unit-2/home/9299635,,,N,Y,42.3124112,-71.1117057
PAST SALE,December-23-2021,Single Family Residential,1 Crosstown Ave,Boston,MA,02132,1275000,4,2.5,West Roxbury,2800,9330,2021,86,455,,Sold,,,https://www.redfin.com/MA/Boston/1-Crosstown-Ave-02132/home/176946594,MLS PIN,72912305,N,Y,42.2622342,-71.1635704
PAST SALE,December-23-2021,Single Family Residential,99 Woodrow Ave,Boston,MA,02124,680000,4,2.5,Dorchester's Dorchester Center,2040,2600,1910,86,333,,Sold,,,https://www.redfin.com/MA/Boston/99-Woodrow-Ave-02124/home/9098124,MLS PIN,72904360,N,Y,42.2876163,-71.0827166
PAST SALE,December-27-2021,Multi-Family (2-4 Unit),6-8 Frederika St,Boston,MA,02124,978000,6,2.0,Dorchester's Ashmont,2842,4915,1935,82,344,,Sold,,,https://www.redfin.com/MA/Boston/6-Frederika-St-02124/home/9102707,MLS PIN,72911222,N,Y,42.2831382,-71.0587005
PAST SALE,December-23-2021,Condo/Co-op,21 Cumberland St #1,Boston,MA,02115,920000,1,1.0,Back Bay,1054,,1900,86,873,297,Sold,,,https://www.redfin.com/MA/Boston/21-Cumberland-St-02115/unit-1/home/9255120,MLS PIN,72897332,N,Y,42.343365,-71.081811
PAST SALE,December-21-2021,Single Family Residential,18 Rutland Sq,Boston,MA,02118,3300000,4,4.5,South End,4662,1563,1860,88,708,,Sold,,,https://www.redfin.com/MA/Boston/18-Rutland-Sq-02118/home/9284344,MLS PIN,72918890,N,Y,42.3414323,-71.0781094
PAST SALE,December-28-2021,Multi-Family (2-4 Unit),35 Fort Ave,Boston,MA,02119,1145000,7,4.0,Boston,2410,2485,1980,81,475,,Sold,,,https://www.redfin.com/MA/Boston/35-Fort-Ave-02119/home/9291095,MLS PIN,72906769,N,Y,42.3259111,-71.0945664
PAST SALE,December-23-2021,Condo/Co-op,944 Dorchester Ave #41,Boston,MA,02125,525000,1,1.0,Dorchester,786,,2008,86,668,364,Sold,,,https://www.redfin.com/MA/Boston/944-Dorchester-Ave-02125/unit-41/home/45407183,MLS PIN,72916060,N,Y,42.3183743,-71.0562303
PAST SALE,,Condo/Co-op,136 Shawmut Ave Unit 140R,Boston,MA,02118,2075000,3,2.5,,1792,,2017,,1158,,,,,https://www.redfin.com/MA/Boston/136-Shawmut-Ave-02118/unit-140R/home/167701915,,,N,Y,42.345897,-71.065861
PAST SALE,December-22-2021,Condo/Co-op,1950 Washington St Unit 5B,Boston,MA,02118,1200000,2,2.5,South End,1410,,2021,87,851,787,Sold,,,https://www.redfin.com/MA/Boston/1950-Washington-St-02118/unit-5B/home/175794496,MLS PIN,72870137,N,Y,42.3341124,-71.0796055
PAST SALE,December-20-2021,Condo/Co-op,10 Taber St #609,Boston,MA,02119,476000,1,1.0,Boston,681,,2021,89,699,513,Sold,,,https://www.redfin.com/MA/Boston/10-Taber-St-02119/unit-609/home/177158611,MLS PIN,72918732,N,Y,42.3300999,-71.0831886
PAST SALE,,Condo/Co-op,217 W Canton St #1,Boston,MA,02116,1100000,2,1.0,,984,,1850,,1118,,,,,https://www.redfin.com/MA/Boston/217-W-Canton-St-02116/unit-1/home/9233381,,,N,Y,42.3453953,-71.076971
PAST SALE,February-17-2022,Condo/Co-op,333 Commonwealth Ave Ph 22,Boston,MA,02115,4295000,4,2.0,Back Bay,2796,1398,1890,30,1536,2263,Sold,,,https://www.redfin.com/MA/Boston/333-Commonwealth-Ave-02115/unit-22/home/9243454,MLS PIN,72842183,N,Y,42.3498374,-71.0875011
PAST SALE,,Condo/Co-op,366 Commonwealth Ave Unit 3C,Boston,MA,02115,569000,1,1.0,,572,,1889,,995,,,,,https://www.redfin.com/MA/Boston/366-Commonwealth-Ave-02115/unit-3C/home/9266964,,,N,Y,42.348735,-71.088117
PAST SALE,,Condo/Co-op,373 Commonwealth Ave #402,Boston,MA,02115,730000,2,1.0,,769,,1890,,949,,,,,https://www.redfin.com/MA/Boston/373-Commonwealth-Ave-02115/unit-402/home/9270194,,,N,Y,42.349492,-71.0892857
PAST SALE,January-12-2022,Condo/Co-op,1 Taylor St Unit A,Boston,MA,02118,585000,1,1.0,South End,550,,1899,66,1064,170,Sold,,,https://www.redfin.com/MA/Boston/1-Taylor-St-02118/unit-A/home/9280698,MLS PIN,72898089,N,Y,42.3440762,-71.0684516
PAST SALE,,Condo/Co-op,553 Columbus Ave #3,Boston,MA,02118,1000000,2,1.0,,878,,1900,,1139,,,,,https://www.redfin.com/MA/Boston/553-Columbus-Ave-02118/unit-3/home/9283617,,,N,Y,42.3414587,-71.0810453
PAST SALE,March-3-2022,Condo/Co-op,16 Upton St #1,Boston,MA,02118,1825000,3,2.5,South End,1877,1837,1899,16,972,458,Sold,,,https://www.redfin.com/MA/Boston/16-Upton-St-02118/unit-1/home/9311135,MLS PIN,72930958,N,Y,42.3420081,-71.0720271
PAST SALE,,Condo/Co-op,96 BEACON ST #2,BOSTON,MA,02108,5450000,3,3.5,,2831,,1900,,1925,,,,,https://www.redfin.com/MA/BOSTON/96-BEACON-ST-02108/unit-2/home/12369130,,,N,Y,42.355562,-71.072616
PAST SALE,,Condo/Co-op,301-303 Columbus Ave #306,Boston,MA,02116,2485000,3,3.0,,2146,,2009,,1158,,,,,https://www.redfin.com/MA/Boston/301-303-Columbus-Ave-02116/unit-306/home/39913223,,,N,Y,42.346814,-71.074522
PAST SALE,February-15-2022,Condo/Co-op,8 Rutland Sq #2,Boston,MA,02118,3675000,3,3.5,South End,2550,,1900,32,1441,477,Sold,,,https://www.redfin.com/MA/Boston/8-Rutland-Sq-02118/unit-2/home/9284371,MLS PIN,72919138,N,Y,42.3412368,-71.0779508
PAST SALE,January-19-2022,Condo/Co-op,778 Boylston Unit 8E,Boston,MA,02199,1980000,2,2.0,Back Bay,1119,,2000,59,1769,2839,Sold,,,https://www.redfin.com/MA/Boston/778-Boylston-St-02199/unit-8E/home/64815324,MLS PIN,72852126,N,Y,42.3486751,-71.0821271
PAST SALE,March-1-2022,Condo/Co-op,380 Harrison Ave Unit 12M,Boston,MA,02118,1210000,1,1.5,South End,912,,2021,18,1327,1091,Sold,,,https://www.redfin.com/MA/Boston/380-Harrison-Ave-02118/unit-12M/home/173173641,MLS PIN,72726594,N,Y,42.343914,-71.0635659
PAST SALE,February-25-2022,Condo/Co-op,51 Mount Vernon St #4,Boston,MA,02108,1190000,2,1.5,Beacon Hill,1020,1020,1870,22,1167,414,Sold,,,https://www.redfin.com/MA/BOSTON/51-MOUNT-VERNON-ST-02108/unit-4/home/9259245,MLS PIN,72932203,N,Y,42.358474,-71.065896
PAST SALE,,Condo/Co-op,574 Tremont St #7,Boston,MA,02118,410000,,1.0,,414,,1905,,990,,,,,https://www.redfin.com/MA/Boston/574-Tremont-St-02118/unit-7/home/11837155,,,N,Y,42.3433494,-71.0724224
PAST SALE,March-18-2022,Condo/Co-op,109 Beacon St #2,Boston,MA,02116,1200000,2,1.5,Back Bay,1192,,1865,1,1007,363,Sold,,,https://www.redfin.com/MA/Boston/109-Beacon-St-02116/unit-2/home/9306471,MLS PIN,72934383,N,Y,42.3549939,-71.0730876
PAST SALE,December-22-2021,Condo/Co-op,525 E 2ND St #3,Boston,MA,02127,1015000,3,3.0,South Boston,1608,1608,1905,87,631,501,Sold,,,https://www.redfin.com/MA/Boston/525-E-2nd-St-02127/unit-3/home/9328174,MLS PIN,72913174,N,Y,42.3369592,-71.0423179
PAST SALE,December-22-2021,Condo/Co-op,15 Henley St Unit E,Boston,MA,02129,1045000,2,1.5,Charlestown,1312,,1988,87,796,459,Sold,,,https://www.redfin.com/MA/Charlestown/15-Henley-St-02129/unit-E/home/9052291,MLS PIN,72905449,N,Y,42.3729786,-71.0613937
PAST SALE,January-26-2022,Condo/Co-op,47 Harvard St Unit B202,Boston,MA,02129,865000,2,2.0,Charlestown,1027,99999,1986,52,842,486,Sold,,,https://www.redfin.com/MA/Boston/47-Harvard-St-02129/unit-B202/home/9052942,MLS PIN,72863668,N,Y,42.3730768,-71.0630799
PAST SALE,December-27-2021,Condo/Co-op,29 Essex St #2,Boston,MA,02129,835000,3,1.5,Charlestown,1528,,1875,82,546,247,Sold,,,https://www.redfin.com/MA/Boston/29-Essex-St-02129/unit-2/home/9305122,MLS PIN,72851641,N,Y,42.3794715,-71.0701469
PAST SALE,,Condo/Co-op,5 Franklin St #1,Charlestown,MA,02129,850000,2,2.0,,973,,2015,,874,,,,,https://www.redfin.com/MA/Charlestown/5-Franklin-St-02129/unit-1/home/114036821,,,N,Y,42.3781449,-71.0671525
PAST SALE,March-18-2022,Condo/Co-op,12 Mount Vernon St #2,Boston,MA,02129,555000,2,1.0,Charlestown,518,,1835,1,1071,150,Sold,,,https://www.redfin.com/MA/Charlestown/12-Mount-Vernon-St-02129/unit-2/home/171415101,MLS PIN,72940366,N,Y,42.375699,-71.058828
PAST SALE,December-21-2021,Multi-Family (2-4 Unit),67-69 Hooker St,Boston,MA,02134,950000,3,2.0,Allston,1896,3875,1925,88,501,,Sold,,,https://www.redfin.com/MA/Boston/67-Hooker-St-02134/home/9002187,MLS PIN,72916065,N,Y,42.3585581,-71.1273956
PAST SALE,December-22-2021,Condo/Co-op,92 Gordon #302,Boston,MA,02135,459000,2,1.0,Brighton,674,,1920,87,681,565,Sold,,,https://www.redfin.com/MA/Brighton/92-Gordon-St-02135/unit-302/home/9012010,MLS PIN,72899178,N,Y,42.3495979,-71.1397224
PAST SALE,December-20-2021,Single Family Residential,24 Nottinghill Rd,Boston,MA,02135,935000,6,2.5,Brighton,2773,5580,1925,89,337,,Sold,,,https://www.redfin.com/MA/Brighton/24-Nottinghill-Rd-02135/home/9020770,MLS PIN,72906795,N,Y,42.3436671,-71.1497254
PAST SALE,December-21-2021,Condo/Co-op,20 Strathmore Rd #2,Brookline,MA,02445,1100000,3,2.0,Brookline,1432,,1925,88,768,200,Sold,,,https://www.redfin.com/MA/Brookline/20-Strathmore-Rd-02445/unit-2/home/11482442,MLS PIN,72893532,N,Y,42.3358035,-71.1462906
PAST SALE,February-15-2022,Condo/Co-op,100 Fulton St Unit 5N,Boston,MA,02109,730000,1,1.0,Waterfront,707,707,1890,32,1033,738,Sold,,,https://www.redfin.com/MA/Boston/100-Fulton-St-02109/unit-5N/home/9231244,MLS PIN,72927481,N,Y,42.3627106,-71.0533286
PAST SALE,February-2-2022,Condo/Co-op,14-16 Henchman St Unit 5M,Boston,MA,02113,675000,1,1.0,Boston,578,578,1904,45,1168,191,Sold,,,https://www.redfin.com/MA/Boston/14-Henchman-St-02113/unit-5M/home/9272207,MLS PIN,72932335,N,Y,42.3673471,-71.0538858
PAST SALE,February-9-2022,Condo/Co-op,134-136 W 9Th St #7,Boston,MA,02127,655000,2,1.0,South Boston,725,725,2004,38,903,250,Sold,,,https://www.redfin.com/MA/Boston/134-W-9th-St-02127/unit-7/home/9328601,MLS PIN,72902044,N,Y,42.3344955,-71.0538696
PAST SALE,March-7-2022,Condo/Co-op,80 Broad St #305,Boston,MA,02110,605000,1,1.0,Financial District,604,604,2006,12,1002,491,Sold,,,https://www.redfin.com/MA/Boston/80-Broad-St-02110/unit-305/home/12439994,MLS PIN,72929252,N,Y,42.3576872,-71.0528178
PAST SALE,March-1-2022,Condo/Co-op,1 Franklin St #5103,Boston,MA,02110,5500000,4,3.5,Midtown,2773,,2016,18,1983,3922,Sold,,,https://www.redfin.com/MA/Boston/1-Franklin-St-02110/unit-5103/home/108993373,MLS PIN,72888922,N,Y,42.3557261,-71.0592362
PAST SALE,February-15-2022,Condo/Co-op,1 Charles St Unit 7H,Boston,MA,02116,1800000,2,2.0,Back Bay,1571,,2004,32,1146,2026,Sold,,,https://www.redfin.com/MA/Boston/1-Charles-St-02114/unit-7H/home/176341129,MLS PIN,72891741,N,Y,42.3563609,-71.0693664
PAST SALE,January-25-2022,Condo/Co-op,49 Melcher St #301,Boston,MA,02210,819000,1,1.0,Seaport District,860,,1916,53,952,684,Sold,,,https://www.redfin.com/MA/Boston/49-Melcher-St-02210/unit-301/home/177679969,MLS PIN,72928992,N,Y,42.349393,-71.0501922
PAST SALE,March-11-2022,Condo/Co-op,9 Hawthorne Pl Unit 12G,Boston,MA,02114,410000,0,1.0,West End,637,,1966,8,644,637,Sold,,,https://www.redfin.com/MA/Boston/9-Hawthorne-Pl-02114/unit-12G/home/9275574,MLS PIN,72928811,N,Y,42.3642695,-71.0657399
PAST SALE,March-16-2022,Condo/Co-op,4 Lathrop Pl #1,Boston,MA,02113,720000,2,1.0,North End,840,,1900,3,857,292,Sold,,,https://www.redfin.com/MA/Boston/4-Lathrop-Pl-02113/unit-1/home/9329240,MLS PIN,72938829,N,Y,42.363838,-71.054074
PAST SALE,March-9-2022,Condo/Co-op,58 Beacon St #4,Boston,MA,02108,4230000,3,3.0,Beacon Hill,2417,,2016,10,1750,1436,Sold,,,https://www.redfin.com/MA/Boston/58-Beacon-St-02108/unit-4/home/114036959,RIS,1283718,N,Y,42.3566192,-71.0685103
PAST SALE,March-1-2022,Multi-Family (2-4 Unit),125 Wordsworth St,Boston,MA,02128,842000,6,3.0,Boston,2589,2400,1910,18,325,,Sold,,,https://www.redfin.com/MA/Boston/125-Wordsworth-St-02128/home/9115165,MLS PIN,72933662,N,Y,42.3834419,-71.0150583
PAST SALE,February-10-2022,Single Family Residential,694 Saratoga St,Boston,MA,02128,682000,4,2.5,Constitution Beach,1917,2500,1910,37,356,,Sold,,,https://www.redfin.com/MA/Boston/694-Saratoga-St-02128/home/9121355,MLS PIN,72920239,N,Y,42.3830207,-71.0195715
PAST SALE,March-7-2022,Condo/Co-op,145 BENNINGTON St #212,Revere,MA,02151,330000,1,1.0,Beachmont,615,,2007,12,537,295,Sold,,,https://www.redfin.com/MA/Revere/145-Bennington-St-02151/unit-212/home/18967142,MLS PIN,72938459,N,Y,42.3943026,-70.9941979
PAST SALE,February-28-2022,Multi-Family (2-4 Unit),56 Wordsworth St,Boston,MA,02128,805000,6,2.0,East Boston,2292,3000,1910,19,351,,Sold,,,https://www.redfin.com/MA/Boston/56-Wordsworth-St-02128/home/9114368,MLS PIN,72927554,N,Y,42.3850254,-71.017206
PAST SALE,March-3-2022,Condo/Co-op,65 Strathmore #37,Boston,MA,02135,441000,1,1.0,Boston,738,,1920,16,598,445,Sold,,,https://www.redfin.com/MA/Brighton/65-Strathmore-Rd-02135/unit-37/home/9024608,MLS PIN,72936346,N,Y,42.3386384,-71.1485224
PAST SALE,January-31-2022,Townhouse,108 Litchfield St #0,Boston,MA,02135,540000,3,1.0,Brighton,1781,,1900,47,303,169,Sold,,,https://www.redfin.com/MA/Boston/108-Litchfield-St-02135/unit-108/home/113715183,MLS PIN,72900951,N,Y,42.361898,-71.1400009
PAST SALE,December-21-2021,Condo/Co-op,2 Sinclair #204,Boston,MA,02134,495000,1,1.0,Allston,493,,2021,88,1004,363,Sold,,,https://www.redfin.com/MA/Boston/2-Sinclair-Pl-02134/unit-204/home/175633053,MLS PIN,72863905,N,Y,42.353908,-71.1399327
PAST SALE,January-19-2022,Multi-Family (2-4 Unit),60 Lithgow St,Boston,MA,02124,1550000,12,6.0,Dorchester's Dorchester Center,4410,5392,1905,59,351,,Sold,,,https://www.redfin.com/MA/Boston/60-Lithgow-St-02124/home/9068714,MLS PIN,72918291,N,Y,42.2907089,-71.0679532
PAST SALE,December-30-2021,Single Family Residential,55 Stoughton St,Boston,MA,02125,475000,5,2.0,Dorchester,2092,1551,1895,79,227,,Sold,,,https://www.redfin.com/MA/Dorchester/55-Stoughton-St-02125/home/9076285,MLS PIN,72921110,N,Y,42.3161041,-71.0633802
PAST SALE,December-30-2021,Single Family Residential,57 Stoughton St,Boston,MA,02125,475000,5,2.0,Dorchester,2092,1463,1870,79,227,,Sold,,,https://www.redfin.com/MA/Dorchester/57-Stoughton-St-02125/home/9076287,MLS PIN,72921115,N,Y,42.3161061,-71.0633314
PAST SALE,March-10-2022,Single Family Residential,480 Columbia Rd,Boston,MA,02125,580000,3,1.0,Boston,1470,4224,1915,9,395,,Sold,,,https://www.redfin.com/MA/Dorchester/480-Columbia-Rd-02125/home/9065347,MLS PIN,72932312,N,Y,42.314221,-71.0679068
PAST SALE,January-6-2022,Condo/Co-op,485 Ashmont St #4,Boston,MA,02122,798000,2,2.5,Boston,1555,,2021,72,513,260,Sold,,,https://www.redfin.com/MA/Dorchester/485-Ashmont-St-02122/unit-4/home/176498774,MLS PIN,72913362,N,Y,42.2885534,-71.053375
PAST SALE,March-11-2022,Condo/Co-op,1069-1071 Dorchester Ave #3,Boston,MA,02125,740000,3,2.0,Dorchester's Savin Hill,1438,,1900,8,515,309,Sold,,,https://www.redfin.com/MA/Boston/1069-Dorchester-Ave-02125/unit-3/home/177166380,MLS PIN,72931469,N,Y,42.3141874,-71.0572136
PAST SALE,February-25-2022,Townhouse,12 Sudan St Unit C,Boston,MA,02125,549900,2,2.0,Dorchester's Savin Hill,916,916,1988,22,600,200,Sold,,,https://www.redfin.com/MA/Boston/12-Sudan-St-02125/unit-C/home/9063281,MLS PIN,72924044,N,Y,42.3169408,-71.0562595
PAST SALE,March-11-2022,Condo/Co-op,36 Bellevue St #2,Boston,MA,02125,420000,3,1.0,Dorchester,1140,,1920,8,368,243,Sold,,,https://www.redfin.com/MA/Boston/36-Bellevue-St-02125/unit-2/home/147125230,MLS PIN,72938999,N,Y,42.3101029,-71.0677211
PAST SALE,February-25-2022,Condo/Co-op,88 Wharf St #606,Milton,MA,02186,1507000,3,2.5,Milton,2789,,2003,22,540,1574,Sold,,,https://www.redfin.com/MA/Milton/88-Wharf-St-02186/unit-606/home/11713663,MLS PIN,72915370,N,Y,42.2703604,-71.0657929
PAST SALE,December-28-2021,Single Family Residential,32 Taylor St,Boston,MA,02122,699000,3,2.0,Dorchester,1469,7624,1900,81,476,,Sold,,,https://www.redfin.com/MA/Dorchester/32-Taylor-St-02122/home/9105536,MLS PIN,72912029,N,Y,42.2863045,-71.0406534
PAST SALE,February-17-2022,Condo/Co-op,37 Essex St #1,Boston,MA,02129,605000,2,1.5,Charlestown,1039,,1860,30,582,350,Sold,,,https://www.redfin.com/MA/Charlestown/37-Essex-St-02129/unit-1/home/9048621,MLS PIN,72915692,N,Y,42.3795561,-71.0704254
PAST SALE,January-18-2022,Condo/Co-op,986 Memorial Dr #105,Cambridge,MA,02138,1475000,3,2.0,Harvard Square,1405,,1920,60,1050,1886,Sold,,,https://www.redfin.com/MA/Cambridge/986-Memorial-Dr-02138/unit-105/home/136936478,MLS PIN,72868049,N,Y,42.3729309,-71.1254445
PAST SALE,January-24-2022,Multi-Family (2-4 Unit),144 Falcon St,Boston,MA,02128,830000,6,2.0,East Boston,2348,2187,1900,54,353,,Sold,,,https://www.redfin.com/MA/Boston/144-Falcon-St-02128/home/9113866,MLS PIN,72918671,N,Y,42.382134,-71.0330389
PAST SALE,January-20-2022,Condo/Co-op,456 Meridian St #1,Boston,MA,02128,762000,3,2.5,Boston,1664,,1944,58,458,200,Sold,,,https://www.redfin.com/MA/Boston/456-Meridian-St-02128/unit-1/home/148354522,MLS PIN,72924708,N,Y,42.382245,-71.0395396
PAST SALE,January-12-2022,Condo/Co-op,46 Eutaw St #1,Boston,MA,02128,689900,3,2.5,East Boston's Eagle Hill,1465,,1845,66,471,200,Sold,,,https://www.redfin.com/MA/Boston/46-Eutaw-St-02128/unit-1/home/176996831,MLS PIN,72914198,N,Y,42.3792639,-71.0378618
PAST SALE,March-15-2022,Condo/Co-op,101 Condor St #205,Boston,MA,02128,639000,2,2.0,East Boston,855,,2021,4,747,380,Sold,,,https://www.redfin.com/MA/Boston/101-Condor-St-02128/unit-205/home/175076219,MLS PIN,72826362,N,Y,42.3825106,-71.0363841
PAST SALE,March-15-2022,Condo/Co-op,101 Condor St #206,Boston,MA,02128,640000,2,2.0,East Boston,855,850,2021,4,749,272,Sold,,,https://www.redfin.com/MA/Boston/101-Condor-St-02128/unit-206/home/174889782,MLS PIN,72864507,N,Y,42.3825106,-71.0363841
PAST SALE,March-15-2022,Condo/Co-op,42 Chelsea St #3,Boston,MA,02128,735000,2,2.0,East Boston,1220,,1900,4,602,379,Sold,,,https://www.redfin.com/MA/Boston/42-Chelsea-St-02128/unit-3/home/169142750,MLS PIN,72931407,N,Y,42.3711306,-71.0376819
PAST SALE,January-18-2022,Single Family Residential,63 Rosseter St,Boston,MA,02121,525000,6,2.0,Boston,2256,3500,1910,60,233,,Sold,,,https://www.redfin.com/MA/Dorchester/63-Rosseter-St-02121/home/9074995,MLS PIN,72913522,N,Y,42.3036189,-71.074897
PAST SALE,February-25-2022,Multi-Family (2-4 Unit),380 Park St,Boston,MA,02124,880000,7,3.5,Dorchester,3030,3425,1910,22,290,,Sold,,,https://www.redfin.com/MA/Boston/380-Park-St-02124/home/9071633,MLS PIN,72928919,N,Y,42.2959754,-71.0696253
PAST SALE,January-25-2022,Single Family Residential,95 Bradlee St,Boston,MA,02136,550000,3,1.5,Boston,1502,7305,1961,53,366,,Sold,,,https://www.redfin.com/MA/Hyde-Park/95-Bradlee-St-02136/home/9122528,MLS PIN,72923982,N,Y,42.2708001,-71.1178239
PAST SALE,February-28-2022,Townhouse,24-26 Mildred Ave #1,Boston,MA,02126,400000,3,2.0,Mattapan,1330,,2006,19,301,250,Sold,,,https://www.redfin.com/MA/Mattapan/24-Mildred-Ave-02126/unit-1/home/21717341,MLS PIN,72897999,N,Y,42.2765489,-71.0915941
PAST SALE,,Condo/Co-op,175 Clare Ave Unit A7,Hyde Park,MA,02136,167000,2,1.0,,825,,1960,,202,,,,,https://www.redfin.com/MA/Hyde-Park/175-Clare-Ave-02136/unit-A7/home/9136192,,,N,Y,42.271983,-71.1193689
PAST SALE,January-31-2022,Condo/Co-op,495 Arborway #34,Boston,MA,02130,333000,1,1.0,Jamaica Plain,580,,1946,47,574,400,Sold,,,https://www.redfin.com/MA/Boston/495-Arborway-02130/unit-34/home/9140381,MLS PIN,72913375,N,Y,42.3006807,-71.1077637
PAST SALE,January-20-2022,Single Family Residential,995 Centre St,Boston,MA,02130,1080000,4,3.0,Jamaica Plain,3042,13357,1984,58,355,,Sold,,,https://www.redfin.com/MA/Jamaica-Plain/995-Centre-St-02130/home/9149907,MLS PIN,72908644,N,Y,42.3067104,-71.1245433
PAST SALE,January-24-2022,Condo/Co-op,32 Bryon Rd #4,Boston,MA,02467,340000,2,1.0,Chestnut Hill,780,780,1955,54,436,392,Sold,,,https://www.redfin.com/MA/Chestnut-Hill/32-Bryon-Rd-02467/unit-4/home/9204565,MLS PIN,72925763,N,Y,42.3022324,-71.1672168
PAST SALE,January-31-2022,Condo/Co-op,50-56 Broadlawn Park #505,Boston,MA,02467,460000,2,2.0,Chestnut Hill,1156,1156,1974,47,398,752,Sold,,,https://www.redfin.com/MA/Chestnut-Hill/50-56-Broadlawn-Park-02467/unit-505/home/9205406,MLS PIN,72893462,N,Y,42.3023918,-71.1639988
PAST SALE,January-14-2022,Single Family Residential,75 Brook Farm Rd,Boston,MA,02132,560000,2,1.5,West Roxbury,1284,5777,1958,64,436,,Sold,,,https://www.redfin.com/MA/West-Roxbury/75-Brook-Farm-Rd-02132/home/9207415,MLS PIN,72925064,N,Y,42.2924832,-71.1670155
PAST SALE,January-20-2022,Condo/Co-op,44 Washington St #1114,Brookline,MA,02445,459000,0,1.0,Brookline,500,357192,1968,58,918,538,Sold,,,https://www.redfin.com/MA/Brookline/44-Washington-St-02445/unit-1114/home/11486123,MLS PIN,72915901,N,Y,42.3312119,-71.1153752
PAST SALE,March-3-2022,Condo/Co-op,13 Fairview St #1,Boston,MA,02131,682500,3,2.0,Roslindale,1520,1520,1870,16,449,253,Sold,,,https://www.redfin.com/MA/Boston/13-Fairview-St-02131/unit-1/home/40352933,MLS PIN,72931272,N,Y,42.2888614,-71.1303922
PAST SALE,December-29-2021,Condo/Co-op,111 Perkins St #183,Boston,MA,02130,500000,2,1.0,Jamaica Plain,1130,,1963,80,442,1346,Sold,,,https://www.redfin.com/MA/Jamaica-Plain/111-Perkins-St-02130/unit-183/home/137115570,MLS PIN,72912656,N,Y,42.3222155,-71.1159742
PAST SALE,March-11-2022,Townhouse,143-171 Hyde Park Ave Unit 165A,Boston,MA,02130,819000,3,2.5,Jamaica Plain,1702,,2017,8,481,598,Sold,,,https://www.redfin.com/MA/Boston/143-Hyde-Park-Ave-02130/unit-165A/home/144716754,MLS PIN,72937110,N,Y,42.2967795,-71.1160367
PAST SALE,February-21-2022,Condo/Co-op,2400 Beacon #215,Boston,MA,02467,1250000,2,2.5,Boston,1450,326700,2006,26,862,1110,Sold,,,https://www.redfin.com/MA/Chestnut-Hill/2400-Beacon-St-02467/unit-215/home/12431591,MLS PIN,72900955,N,Y,42.3336022,-71.1530121
PAST SALE,March-14-2022,Multi-Family (2-4 Unit),34 Delle Ave,Boston,MA,02120,1675000,9,3.0,Mission Hill,2726,3084,1900,5,614,,Sold,,,https://www.redfin.com/MA/Boston/34-Delle-Ave-02120/home/9297667,MLS PIN,72934629,N,Y,42.331053,-71.0989086
PAST SALE,January-5-2022,Multi-Family (2-4 Unit),101-103 Albano St,Boston,MA,02131,700000,4,2.0,Roslindale,1800,6351,1900,73,389,,Sold,,,https://www.redfin.com/MA/Boston/101-Albano-St-02131/home/9171866,MLS PIN,72919053,N,Y,42.2848453,-71.1330677
PAST SALE,January-12-2022,Townhouse,23 Swallow St #1,Boston,MA,02127,760000,2,2.5,South Boston's City Point,1397,1397,1900,66,544,206,Sold,,,https://www.redfin.com/MA/Boston/23-Swallow-St-02127/unit-1/home/40416983,MLS PIN,72892436,N,Y,42.3335966,-71.0300765
PAST SALE,March-8-2022,Condo/Co-op,155 O St #2,Boston,MA,02127,650000,2,1.0,South Boston,706,,1868,11,921,156,Sold,,,https://www.redfin.com/MA/Boston/155-O-St-02127/unit-2/home/28906681,MLS PIN,72934989,N,Y,42.3328399,-71.0293591
PAST SALE,December-22-2021,Condo/Co-op,407 W 1st #202,Boston,MA,02127,1200000,2,2.0,South Boston,1663,,2014,87,722,422,Sold,,,https://www.redfin.com/MA/Boston/407-W-First-St-02127/unit-202/home/55120426,MLS PIN,72886017,N,Y,42.337977,-71.044633
PAST SALE,March-11-2022,Condo/Co-op,458 E 8th St #1,Boston,MA,02127,550000,2,1.0,South Boston,996,996,1905,8,552,200,Sold,,,https://www.redfin.com/MA/Boston/458-E-8th-St-02127/unit-1/home/9328250,MLS PIN,72926301,N,Y,42.3314706,-71.0427892
PAST SALE,February-22-2022,Condo/Co-op,511 E 5Th St Unit 1R,Boston,MA,02127,939000,2,2.0,South Boston,1200,,1920,25,783,392,Sold,,,https://www.redfin.com/MA/Boston/511-E-5th-St-02127/unit-1R/home/167576769,MLS PIN,72907762,N,Y,42.3336201,-71.0402612
PAST SALE,December-22-2021,Multi-Family (2-4 Unit),68 Greenwood St,Boston,MA,02121,1010000,8,3.0,Dorchester,4156,4983,1900,87,243,,Sold,,,https://www.redfin.com/MA/Boston/68-Greenwood-St-02121/home/9080458,MLS PIN,72891943,N,Y,42.2996632,-71.0796983
PAST SALE,,Condo/Co-op,6 Whittier Pl Unit 11R,Boston,MA,02114,415000,1,1.0,,802,,1964,,517,,,,,https://www.redfin.com/MA/Boston/6-Whittier-Pl-02114/unit-11R/home/9228373,,,N,Y,42.365702,-71.066702
PAST SALE,December-22-2021,Condo/Co-op,300 Boylston St #1201,Boston,MA,02116,5050000,2,2.5,Back Bay,2492,,1987,87,2026,4515,Sold,,,https://www.redfin.com/MA/Boston/300-Boylston-St-02116/unit-1201/home/9235998,MLS PIN,72903943,N,Y,42.3518065,-71.0698243
PAST SALE,December-23-2021,Condo/Co-op,37 Beacon St #36,Boston,MA,02108,830000,1,1.0,Beacon Hill,770,,1920,86,1078,600,Sold,,,https://www.redfin.com/MA/Boston/37-Beacon-St-02108/unit-36/home/9258996,MLS PIN,72909927,N,Y,42.3572906,-71.0656765
PAST SALE,,Condo/Co-op,156 Quincy St Unit A,Boston,MA,02121,153000,3,2.0,,1169,,1995,,131,,,,,https://www.redfin.com/MA/Boston/156-Quincy-St-02121/unit-A/home/9311800,,,N,Y,42.3135282,-71.0761502
PAST SALE,December-30-2021,Condo/Co-op,271 Dartmouth Unit 1k,Boston,MA,02116,830000,1,1.0,Back Bay,702,,1885,79,1182,466,Sold,,,https://www.redfin.com/MA/Boston/271-Dartmouth-St-02116/unit-1K/home/169427983,MLS PIN,72860046,N,Y,42.3506554,-71.0773882
PAST SALE,December-28-2021,Condo/Co-op,1950 Washington St Unit 4B,Boston,MA,02118,435000,0,1.0,South End,450,,2021,81,967,271,Sold,,,https://www.redfin.com/MA/Boston/1950-Washington-St-02118/unit-4B/home/175535218,MLS PIN,72854718,N,Y,42.3341124,-71.0796055
PAST SALE,December-30-2021,Single Family Residential,846 Truman Pkwy,Boston,MA,02136,465000,2,1.0,Suffolk County,784,4786,1950,79,593,,Sold,,,https://www.redfin.com/MA/Hyde-Park/846-Truman-Pkwy-02136/home/9131973,MLS PIN,72916218,N,Y,42.2480148,-71.1241371
PAST SALE,December-28-2021,Condo/Co-op,804 Centre St #102,Boston,MA,02130,482500,2,1.0,Jamaica Plain,795,795,1960,81,607,315,Sold,,,https://www.redfin.com/MA/Jamaica-Plain/804-Centre-St-02130/unit-102/home/9148144,MLS PIN,72899816,N,Y,42.3085149,-71.1177891
PAST SALE,December-21-2021,Condo/Co-op,90 Antwerp #306,Boston,MA,02135,744000,2,2.0,Allston,969,,2021,88,768,486,Sold,,,https://www.redfin.com/MA/Boston/90-Antwerp-St-02135/unit-306/home/175598218,MLS PIN,72860594,N,Y,42.36117,-71.139454
PAST SALE,December-22-2021,Single Family Residential,31 Fairlane Rd,Boston,MA,02132,610000,3,2.0,West Roxbury,1305,3354,1956,87,467,,Sold,,,https://www.redfin.com/MA/West-Roxbury/31-Fairlane-Rd-02132/home/9220001,MLS PIN,72915104,N,Y,42.2664815,-71.1645555
PAST SALE,December-22-2021,Condo/Co-op,5170 Washington St #207,Boston,MA,02132,405000,2,2.0,West Roxbury,1162,,2004,87,349,461,Sold,,,https://www.redfin.com/MA/Boston/5170-Washington-St-02132/unit-207/home/21719280,MLS PIN,72905626,N,Y,42.2618548,-71.1560381
PAST SALE,December-30-2021,Multi-Family (2-4 Unit),12 Shaw St,Boston,MA,02132,940000,5,2.0,West Roxbury's Bellevue Hill,2392,5949,1949,79,393,,Sold,,,https://www.redfin.com/MA/Boston/12-Shaw-St-02132/home/9214782,MLS PIN,72920504,N,Y,42.2754201,-71.1503985
PAST SALE,December-28-2021,Condo/Co-op,20 Radcliffe Rd #110,Boston,MA,02134,387075,2,1.0,Allston,815,815,1945,81,475,340,Sold,,,https://www.redfin.com/MA/Boston/20-Radcliffe-Rd-02134/unit-110/home/8985091,MLS PIN,72870159,N,Y,42.3510352,-71.1349645
PAST SALE,December-27-2021,Condo/Co-op,50 Hichborn #406,Boston,MA,02135,950000,2,2.0,Brighton,903,,2020,82,1052,427,Sold,,,https://www.redfin.com/MA/Boston/50-Hichborn-St-02135/unit-406/home/171053468,MLS PIN,72631381,N,Y,42.3557313,-71.1429341
PAST SALE,December-22-2021,Condo/Co-op,90 Antwerp #205,Boston,MA,02135,625000,2,1.5,Allston,846,,2021,87,739,486,Sold,,,https://www.redfin.com/MA/Boston/90-Antwerp-St-02135/unit-205/home/175115025,MLS PIN,72830098,N,Y,42.36117,-71.139454
PAST SALE,December-21-2021,Condo/Co-op,90 Antwerp Unit 302-1,Boston,MA,02135,953000,3,2.0,Allston,1712,,2021,88,557,706,Sold,,,https://www.redfin.com/MA/Boston/90-Antwerp-St-02135/unit-302-1/home/177151142,MLS PIN,72917984,N,Y,42.36117,-71.139454
PAST SALE,December-30-2021,Condo/Co-op,50 Hichborn #408,Boston,MA,02135,999000,2,2.0,Boston,1161,,2020,79,860,510,Sold,,,https://www.redfin.com/MA/Boston/50-Hichborn-St-02135/unit-408/home/177727819,MLS PIN,72929938,N,Y,42.3557479,-71.1429186
PAST SALE,February-28-2022,Condo/Co-op,60 Newbury #9,Quincy,MA,02171,968000,2,2.0,North Quincy,1397,,2021,19,693,464,Sold,,,https://www.redfin.com/MA/Quincy/60-Newbury-St-02171/unit-9/home/178374531,MLS PIN,72945158,N,Y,42.28025,-71.0389355
PAST SALE,February-8-2022,Parking,Zero Bolton D12,Boston,MA,02127,65000,,,South Boston,,,,39,,,Sold,,,https://www.redfin.com/MA/Boston/Zero-Bolton-St-02127/unit-0/home/148128958,MLS PIN,72922303,N,Y,42.3393572,-71.0488053
PAST SALE,December-21-2021,Condo/Co-op,1722 Commonwealth Ave #2,Boston,MA,02135,490000,2,1.0,Brighton's Chestnut Hill,725,725,1920,88,676,382,Sold,,,https://www.redfin.com/MA/Boston/1722-Commonwealth-Ave-02135/unit-2/home/9023283,MLS PIN,72912111,N,Y,42.3412447,-71.1481313
PAST SALE,December-28-2021,Condo/Co-op,16 Montclair Ave #2,Boston,MA,02132,482500,3,1.0,West Roxbury,1257,1257,1910,81,384,200,Sold,,,https://www.redfin.com/MA/West-Roxbury/16-Montclair-Ave-02132/unit-2/home/9311583,MLS PIN,72916788,N,Y,42.2896737,-71.1426003
PAST SALE,December-28-2021,Condo/Co-op,37 Park Vale Ave #5,Boston,MA,01234,580000,3,2.0,Allston,1190,,1945,81,487,590,Sold,,,https://www.redfin.com/MA/Boston/37-Park-Vale-Ave-02134/unit-5/home/8996115,MLS PIN,72869884,N,Y,42.3521145,-71.1330149
PAST SALE,December-20-2021,Condo/Co-op,133 Chiswick Rd Unit B,Boston,MA,02135,420000,3,1.0,Brighton's Cleveland Circle,925,925,1920,89,454,467,Sold,,,https://www.redfin.com/MA/Boston/133-Chiswick-Rd-02135/unit-B/home/9025483,MLS PIN,72902594,N,Y,42.3409261,-71.1533271
PAST SALE,March-1-2022,Parking,80 Broad Street Parking Spc 15,Boston,MA,02110,97500,,,Waterfront,,,,18,,,Sold,,,https://www.redfin.com/MA/Boston/80-Broad-St-02110/unit-15/home/171202959,MLS PIN,72638509,N,Y,42.3577317,-71.0528044
PAST SALE,March-15-2022,Condo/Co-op,74 Everett St #1,Boston,MA,02128,695000,2,2.0,East Boston,1205,,1900,4,577,222,Sold,,,https://www.redfin.com/MA/Boston/74-Everett-St-02128/unit-1/home/177950941,MLS PIN,72936949,N,Y,42.3677697,-71.0348364
PAST SALE,,Parking,425 Newbury St Unit PS186,Boston,MA,02115,80000,,,,,181,,,,,,,,https://www.redfin.com/MA/Boston/425-Newbury-St-02115/unit-PS186/home/9271500,,,N,Y,42.3482776,-71.0906149
PAST SALE,February-23-2022,Condo/Co-op,479 Massachusetts Ave #3,Boston,MA,02118,700000,2,1.0,South End,667,667,1900,24,1049,234,Sold,,,https://www.redfin.com/MA/Boston/479-Massachusetts-Ave-02118/unit-3/home/9287591,MLS PIN,72929998,N,Y,42.3395743,-71.0810039
PAST SALE,March-15-2022,Condo/Co-op,100 Shawmut Ave #1102,Boston,MA,02118,2324900,2,2.0,South End,1389,,2021,4,1674,1664,Sold,,,https://www.redfin.com/MA/Boston/100-Shawmut-Ave-02118/unit-1102/home/177804085,MLS PIN,72930744,N,Y,42.3466841,-71.0656551
PAST SALE,March-15-2022,Multi-Family (2-4 Unit),6 Fayette St,Boston,MA,02116,1615000,3,3.0,Bay Village,2511,862,1899,4,643,,Sold,,,https://www.redfin.com/MA/Boston/6-Fayette-St-02116/home/133156026,MLS PIN,72936483,N,Y,42.3492202,-71.0667939
PAST SALE,,Condo/Co-op,180 Beacon St Unit 5F,Boston,MA,02116,1750000,2,2.5,,1396,,1968,,1254,,,,,https://www.redfin.com/MA/Boston/180-Beacon-St-02116/unit-5F/home/9251929,,,N,Y,42.354552,-71.076774
PAST SALE,February-23-2022,Condo/Co-op,27 Bowdoin St Unit 4A,Boston,MA,02114,540000,1,1.0,Beacon Hill,542,542,1890,24,996,535,Sold,,,https://www.redfin.com/MA/Boston/27-Bowdoin-St-02114/unit-4A/home/9276091,MLS PIN,72897043,N,Y,42.3605538,-71.0630784
PAST SALE,December-22-2021,Vacant Land,140 Wachusett St,Boston,MA,02130,1160000,,,Jamaica Plain,,18584,,87,,,Sold,,,https://www.redfin.com/MA/Boston/140-Wachusett-St-02130/home/176118412,MLS PIN,72887171,N,Y,42.2942508,-71.1155377
PAST SALE,February-18-2022,Single Family Residential,153 Ormond St,Boston,MA,02126,525000,5,3.0,Mattapan,1224,4792,1962,29,429,,Sold,,,https://www.redfin.com/MA/Boston/153-Ormond-St-02126/home/9161069,MLS PIN,72928590,N,Y,42.2839471,-71.0952047
PAST SALE,February-25-2022,Single Family Residential,25 Alpheus Rd,Boston,MA,02131,549000,4,1.0,Roslindale,1550,4200,1926,22,354,,Sold,,,https://www.redfin.com/MA/Boston/25-Alpheus-Rd-02131/home/9181340,MLS PIN,72918673,N,Y,42.2715889,-71.1283033
PAST SALE,March-9-2022,Single Family Residential,57 Lasell,Boston,MA,02132,745000,3,1.0,West Roxbury,1334,4000,1934,10,558,,Sold,,,https://www.redfin.com/MA/West-Roxbury/57-Lasell-St-02132/home/9212458,MLS PIN,72938493,N,Y,42.2873973,-71.1685936
PAST SALE,February-28-2022,Condo/Co-op,77 Pond Ave #407,Brookline,MA,02445,480000,1,1.0,Brookline,860,,1970,19,558,712,Sold,,,https://www.redfin.com/MA/Brookline/77-Pond-Ave-02445/unit-407/home/11487410,MLS PIN,72936848,N,Y,42.3302303,-71.1152824
PAST SALE,,Condo/Co-op,212 Winchester St #1,Brookline,MA,02446,1970000,4,3.5,,2082,,1920,,946,,,,,https://www.redfin.com/MA/Brookline/212-Winchester-St-02446/unit-1/home/40162636,,,N,Y,42.3450433,-71.1329221
PAST SALE,,Condo/Co-op,33 Calumet St #1,Boston,MA,02120,558400,3,1.0,,1160,,1900,,481,,,,,https://www.redfin.com/MA/Boston/33-Calumet-St-02120/unit-1/home/21718124,,,N,Y,42.3329083,-71.1056036
PAST SALE,February-28-2022,Single Family Residential,16 Ralston Rd,Boston,MA,02136,530000,3,2.0,Hyde Park,1300,1315,1965,19,408,,Sold,,,https://www.redfin.com/MA/Hyde-Park/16-Ralston-Rd-02136/home/9164085,MLS PIN,72934632,N,Y,42.2665338,-71.1018937
PAST SALE,February-22-2022,Single Family Residential,102 Hamilton St,Boston,MA,02125,344480,3,1.5,Boston,1488,4620,1998,25,232,,Sold,,,https://www.redfin.com/MA/Boston/102-Hamilton-St-02125/home/9305617,MLS PIN,72884354,N,Y,42.3074673,-71.0683305
PAST SALE,February-28-2022,Multi-Family (2-4 Unit),8-10 Withington St,Boston,MA,02124,750000,6,2.0,Dorchester,2557,3725,1885,19,293,,Sold,,,https://www.redfin.com/MA/Boston/8-Withington-St-02124/home/9077109,MLS PIN,72928473,N,Y,42.288998,-71.0726946
PAST SALE,January-14-2022,Vacant Land,00 Blanche St,Boston,MA,02122,155000,,,Dorchester,,1800,,64,,,Sold,,,https://www.redfin.com/MA/DORCHESTER/BLANCHE-ST-02122/home/9224318,MLS PIN,72915480,N,Y,42.298278,-71.050389
PAST SALE,January-31-2022,Vacant Land,80-88 Wales St,Boston,MA,02124,560000,,,Boston,,6500,,47,,,Sold,,,https://www.redfin.com/MA/Boston/80-Wales-St-02124/home/85681216,MLS PIN,72905954,N,Y,42.2948191,-71.0835475
PAST SALE,March-15-2022,Condo/Co-op,31 Circuit St #1,Boston,MA,02119,350000,1,1.0,Roxbury,598,598,1989,4,585,215,Sold,,,https://www.redfin.com/MA/Boston/31-Circuit-St-02119/unit-1/home/9289257,MLS PIN,72902358,N,Y,42.3237071,-71.0857279
PAST SALE,March-15-2022,Condo/Co-op,139 Chestnut Ave #1,Boston,MA,02130,711000,3,1.0,Jamaica Plain,1213,3373,1900,4,586,300,Sold,,,https://www.redfin.com/MA/Boston/139-Chestnut-Ave-02130/unit-1/home/11739062,MLS PIN,72937025,N,Y,42.3182567,-71.1061605
PAST SALE,March-1-2022,Condo/Co-op,14 Vinton St #1,Boston,MA,02127,687000,3,1.0,South Boston,1133,1133,1905,18,606,200,Sold,,,https://www.redfin.com/MA/Boston/14-Vinton-St-02127/unit-1/home/9227852,MLS PIN,72927790,N,Y,42.3301289,-71.0540763
PAST SALE,March-12-2022,Single Family Residential,13 Knowlton St,Boston,MA,02127,899000,4,2.5,South Boston's Dorchester Heights,1431,755,1905,7,628,,Sold,,,https://www.redfin.com/MA/Boston/13-Knowlton-St-02127/home/11734837,MLS PIN,72934907,N,Y,42.3324923,-71.0499312
PAST SALE,March-14-2022,Condo/Co-op,1950 Washington St Unit 4D,Boston,MA,02118,860000,2,2.0,South End,1089,,2021,5,790,425,Sold,,,https://www.redfin.com/MA/Boston/1950-Washington-St-02118/unit-4D/home/176223248,MLS PIN,72886924,N,Y,42.3341155,-71.0795929
PAST SALE,March-15-2022,Condo/Co-op,858 E 2Nd St #6,Boston,MA,02127,940000,2,2.0,South Boston,1231,1231,2014,4,764,232,Sold,,,https://www.redfin.com/MA/Boston/858-E-2nd-St-02127/unit-6/home/52964020,MLS PIN,72924133,N,Y,42.3376003,-71.0289158
PAST SALE,February-24-2022,Condo/Co-op,133 Seaport Blvd #1117,Boston,MA,02210,1575000,2,2.0,Seaport District,1057,,2019,23,1490,1560,Sold,,,https://www.redfin.com/MA/Boston/133-Seaport-Blvd-02210/unit-1117/home/170936435,MLS PIN,72921300,N,Y,42.3505253,-71.0436017
PAST SALE,March-14-2022,Single Family Residential,20 Barnard Pl,Boston,MA,02127,770000,2,1.5,South Boston,1132,755,1984,5,680,,Sold,,,https://www.redfin.com/MA/Boston/20-Barnard-Pl-02127/home/9306945,MLS PIN,72939144,N,Y,42.3367471,-71.0391215
PAST SALE,February-28-2022,Condo/Co-op,197 8th St #618,Boston,MA,02129,850000,2,2.0,Charlestown's Navy Yard,1156,,1989,19,735,895,Sold,,,https://www.redfin.com/MA/Boston/197-8th-St-02129/unit-618/home/9050215,MLS PIN,72931778,N,Y,42.3734076,-71.0521911
PAST SALE,March-15-2022,Condo/Co-op,65 Chelsea St #108,Boston,MA,02129,910000,2,2.0,Charlestown's Navy Yard,1094,,2000,4,832,776,Sold,,,https://www.redfin.com/MA/Boston/65-Chelsea-St-02129/unit-108/home/9310515,MLS PIN,72931670,N,Y,42.3729467,-71.0588303
PAST SALE,March-2-2022,Condo/Co-op,80 Broad St #606,Boston,MA,02110,708000,1,1.0,Financial District,760,760,2006,17,932,659,Sold,,,https://www.redfin.com/MA/Boston/80-Broad-St-02110/unit-606/home/12440135,MLS PIN,72925751,N,Y,42.3576872,-71.0528178
PAST SALE,February-22-2022,Condo/Co-op,1 Franklin St #3404,Boston,MA,02110,3575000,3,3.0,Boston,1754,,2016,25,2038,2311,Sold,,,https://www.redfin.com/MA/Boston/1-Franklin-St-02110/unit-3404/home/145254594,MLS PIN,72917922,N,Y,42.3553811,-71.0568886
PAST SALE,January-14-2022,Condo/Co-op,6 Hayes Rd #14,Boston,MA,02131,229000,1,1.0,Roslindale,645,,1967,64,355,347,Sold,,,https://www.redfin.com/MA/Roslindale/6-Hayes-Rd-02131/unit-14/home/9173058,MLS PIN,72921515,N,Y,42.2827784,-71.1325507
PAST SALE,February-9-2022,Condo/Co-op,115 Grove St #11,Boston,MA,02132,275000,1,1.0,West Roxbury,635,,1969,38,433,293,Sold,,,https://www.redfin.com/MA/Boston/115-Grove-St-02132/unit-11/home/9222733,MLS PIN,72924272,N,Y,42.2657686,-71.1591895
PAST SALE,March-2-2022,Condo/Co-op,4044 Washington St #5,Boston,MA,02131,485000,2,2.0,Roslindale,925,925,2006,17,524,354,Sold,,,https://www.redfin.com/MA/Boston/4044-Washington-St-02131/unit-5/home/21718228,MLS PIN,72932874,N,Y,42.2913486,-71.1226169
PAST SALE,March-6-2022,Multi-Family (2-4 Unit),85-87 Westminster St,Boston,MA,02136,700000,5,2.0,Hyde Park,2464,4885,1925,13,284,,Sold,,,https://www.redfin.com/MA/Boston/85-Westminster-St-02136/home/9125378,MLS PIN,72939069,N,Y,42.263982,-71.1171836
PAST SALE,February-23-2022,Townhouse,17 June St #2,Boston,MA,02131,885000,3,3.5,Roslindale,2710,16195,2019,24,327,400,Sold,,,https://www.redfin.com/MA/Boston/17-June-St-02131/unit-2/home/170008547,MLS PIN,72933038,N,Y,42.2764023,-71.1355257
PAST SALE,February-11-2022,Townhouse,15 Seymour #15,Boston,MA,02131,550000,2,1.5,Roslindale,1252,3368,1987,36,439,100,Sold,,,https://www.redfin.com/MA/Roslindale/15-Seymour-St-02131/unit-15/home/175939021,MLS PIN,72935139,N,Y,42.2801716,-71.1232396
PAST SALE,March-14-2022,Single Family Residential,1865 Hyde Park Ave,Boston,MA,02136,720000,4,1.5,Readville,2372,4979,1900,5,304,,Sold,,,https://www.redfin.com/MA/Hyde-Park/1865-Hyde-Park-Ave-02136/home/9134843,MLS PIN,72935470,N,Y,42.2353437,-71.1330381
PAST SALE,February-28-2022,Single Family Residential,34 Northdale Rd,Boston,MA,02132,1283700,4,2.5,West Roxbury,2300,6000,2021,19,558,,Sold,,,https://www.redfin.com/MA/Boston/34-Northdale-Rd-02132/home/177791484,MLS PIN,72930255,N,Y,42.2683815,-71.1641003
PAST SALE,February-28-2022,Single Family Residential,89 Schiller Rd,Dedham,MA,02026,418000,3,1.0,Dedham,992,3920,1954,19,421,,Sold,,,https://www.redfin.com/MA/Dedham/89-Schiller-Rd-02026/home/11825337,MLS PIN,72925671,N,Y,42.2555694,-71.1616313
PAST SALE,January-14-2022,Single Family Residential,70 Sullivan St,Boston,MA,02129,940000,2,1.5,Charlestown,1314,810,1850,64,715,,Sold,,,https://www.redfin.com/MA/Charlestown/70-Sullivan-St-02129/home/9060648,MLS PIN,72907659,N,Y,42.3792347,-71.065121
PAST SALE,,Condo/Co-op,43 Chelsea St #43,Boston,MA,02129,1422020,3,2.5,,1849,,2000,,769,,,,,https://www.redfin.com/MA/Boston/43-Chelsea-St-02129/unit-43/home/9310460,,,N,Y,42.3724655,-71.0597277
PAST SALE,,Condo/Co-op,61 Chelsea St Unit 00B-61,Boston,MA,02129,1500000,3,2.5,,1849,,2000,,811,,,,,https://www.redfin.com/MA/Boston/61-Chelsea-St-02129/unit-00B-61/home/9310490,,,N,Y,42.3728169,-71.0592488
PAST SALE,March-3-2022,Condo/Co-op,56 High St #1,Boston,MA,02129,795000,2,1.5,Charlestown,937,,1880,16,848,198,Sold,,,https://www.redfin.com/MA/Charlestown/56-High-St-02129/unit-1/home/9323724,MLS PIN,72933681,N,Y,42.3764571,-71.0636023
PAST SALE,March-8-2022,Condo/Co-op,42 8Th St #5110,Boston,MA,02129,667500,2,2.0,Charlestown's Navy Yard,1008,,1899,11,662,722,Sold,,,https://www.redfin.com/MA/Charlestown/42-8th-St-02129/unit-5110/home/11511587,MLS PIN,72933672,N,Y,42.3750453,-71.0526553
PAST SALE,March-15-2022,Townhouse,16-18 Chappie St #16,Boston,MA,02129,2050000,4,3.5,Charlestown,2638,3931,2021,4,777,,Sold,,,https://www.redfin.com/MA/Charlestown/16-Chappie-St-02129/unit-16/home/177637394,MLS PIN,72928178,N,Y,42.3828025,-71.0690674
PAST SALE,March-14-2022,Condo/Co-op,610 Rutherford #302,Boston,MA,02129,540000,1,1.0,Charlestown,682,,2020,5,792,198,Sold,,,https://www.redfin.com/MA/Boston/610-Rutherford-Ave-02129/unit-302/home/172068462,MLS PIN,72942353,N,Y,42.3836428,-71.0738301
PAST SALE,,Other,20 Prince St,Boston,MA,02113,1362000,,,,6264,1742,1920,,217,,,,,https://www.redfin.com/MA/Boston/20-Prince-St-02113/home/39914094,,,N,Y,42.3643438,-71.0542369
PAST SALE,January-27-2022,Vacant Land,425 Newbury Street PS-186,Boston,MA,02115,80000,,,Back Bay,,,,51,,70,Sold,,,https://www.redfin.com/MA/Boston/425-Newbury-St-02115/unit-F1/home/9239278,MLS PIN,72929092,N,Y,42.3482776,-71.0906149
PAST SALE,January-26-2022,Condo/Co-op,11 Walley St #110,Boston,MA,02128,735000,3,2.0,East Boston,1241,,2020,52,592,511,Sold,,,https://www.redfin.com/MA/Boston/11-Walley-St-02128/unit-110/home/177072473,MLS PIN,72916388,N,Y,42.3897025,-70.9986434
PAST SALE,January-5-2022,Condo/Co-op,804 E 3rd St #3,Boston,MA,02127,529200,1,1.0,South Boston,835,,1890,73,634,209,Sold,,,https://www.redfin.com/MA/Boston/804-E-3rd-St-02127/unit-3/home/9309428,MLS PIN,72886522,N,Y,42.3367332,-71.0275599
PAST SALE,January-20-2022,Condo/Co-op,360 W Second St Unit PSC,Boston,MA,02127,95000,0,,South Boston,1,,2013,58,95000,15,Sold,,,https://www.redfin.com/MA/Boston/360-W-2nd-St-02127/unit-PSC/home/167004316,MLS PIN,72901886,N,Y,42.3383946,-71.0463304
PAST SALE,February-1-2022,Condo/Co-op,205 L St #2,Boston,MA,02127,587500,3,1.0,South Boston,1309,,1920,46,449,275,Sold,,,https://www.redfin.com/MA/Boston/205-L-St-02127/unit-2/home/176719864,MLS PIN,72907867,N,Y,42.331367,-71.0354533
PAST SALE,February-1-2022,Condo/Co-op,205 L St #3,Boston,MA,02127,587500,3,1.0,South Boston,1309,,1920,46,449,275,Sold,,,https://www.redfin.com/MA/Boston/205-L-St-02127/unit-3/home/176719865,MLS PIN,72907870,N,Y,42.331367,-71.0354533
PAST SALE,January-5-2022,Condo/Co-op,197 8Th St Ph 230,Boston,MA,02129,2475000,3,2.5,Charlestown's Navy Yard,2432,,1989,73,1018,3412,Sold,,,https://www.redfin.com/MA/Boston/197-8th-St-02129/unit-230/home/9049845,MLS PIN,72855826,N,Y,42.3734076,-71.0521911
PAST SALE,,Condo/Co-op,197 8th St #804,Boston,MA,02129,900000,1,1.0,,836,,1989,,1077,,,,,https://www.redfin.com/MA/Boston/197-8th-St-02129/unit-804/home/9050682,,,N,Y,42.3734076,-71.0521911
PAST SALE,,Condo/Co-op,106 13th St #330,Boston,MA,02129,519000,1,1.0,,733,,1920,,708,,,,,https://www.redfin.com/MA/Boston/106-13th-St-02129/unit-330/home/9051257,,,N,Y,42.3772497,-71.0511388
PAST SALE,March-7-2022,Condo/Co-op,357 Commercial St #616,Boston,MA,02109,754000,2,1.5,Boston,1240,1240,1987,12,608,758,Sold,,,https://www.redfin.com/MA/Boston/357-Commercial-St-02109/unit-616/home/9230495,MLS PIN,72932174,N,Y,42.3660676,-71.0508937
PAST SALE,February-10-2022,Condo/Co-op,5 Holden Ct #3,Boston,MA,02109,517000,1,1.0,North End,632,632,1910,37,818,243,Sold,,,https://www.redfin.com/MA/Boston/5-Holden-Ct-02109/unit-3/home/9230895,MLS PIN,72905048,N,Y,42.3667292,-71.0522388
PAST SALE,January-7-2022,Condo/Co-op,65 E India Row Unit 10H,Boston,MA,02110,796600,1,1.0,Waterfront,881,,1972,71,904,797,Sold,,,https://www.redfin.com/MA/Boston/65-E-India-Row-02110/unit-10H/home/9260740,MLS PIN,72917885,N,Y,42.3576699,-71.0504859
PAST SALE,March-1-2022,Condo/Co-op,85 E India Row Unit 31H,Boston,MA,02110,876500,1,1.0,Waterfront,882,882,1972,18,994,1026,Sold,,,https://www.redfin.com/MA/Boston/85-E-India-Row-02110/unit-31H/home/9261787,MLS PIN,72895661,N,Y,42.3581217,-71.0498232
PAST SALE,December-20-2021,Condo/Co-op,142 Commercial St #402,Boston,MA,02109,730000,1,1.0,Waterfront,860,860,1856,89,849,473,Sold,,,https://www.redfin.com/MA/Boston/142-Commercial-St-02109/unit-402/home/9269921,MLS PIN,72894353,N,Y,42.3622497,-71.0525857
PAST SALE,February-8-2022,Multi-Family (5+ Unit),109 Fulton St,Boston,MA,02109,2600000,9,7.0,North End,4843,964,1899,39,537,,Sold,,,https://www.redfin.com/MA/Boston/109-Fulton-St-02109/home/9269981,MLS PIN,72904650,N,Y,42.3624309,-71.0528748
PAST SALE,,Condo/Co-op,99 Broad St Unit 5C,Boston,MA,02110,965000,2,2.0,,1156,,1910,,835,,,,,https://www.redfin.com/MA/Boston/99-Broad-St-02110/unit-5C/home/28456677,,,N,Y,42.3573202,-71.052619
PAST SALE,February-3-2022,Condo/Co-op,100 Fulton St Unit 5K,Boston,MA,02109,1450000,3,2.0,Waterfront,1525,,1890,44,951,1345,Sold,,,https://www.redfin.com/MA/Boston/100-Fulton-St-02109/unit-5K/home/45493771,MLS PIN,72869888,N,Y,42.362617,-71.053035
PAST SALE,March-4-2022,Condo/Co-op,49 Melcher St #206,Boston,MA,02210,799000,1,1.0,Seaport District,844,,1916,15,947,670,Sold,,,https://www.redfin.com/MA/Boston/49-Melcher-St-02210/unit-206/home/177425739,MLS PIN,72924385,N,Y,42.349393,-71.0501922
PAST SALE,March-11-2022,Condo/Co-op,33 Sleeper St #209,Boston,MA,02210,875000,2,1.0,Seaport District,1138,1138,1911,8,769,668,Sold,,,https://www.redfin.com/MA/Boston/33-Sleeper-St-02210/unit-209/home/9252806,MLS PIN,72932629,N,Y,42.3522602,-71.0487553
PAST SALE,March-14-2022,Condo/Co-op,8 Battery St #6,Boston,MA,02109,440000,0,1.0,North End,475,475,1900,5,926,174,Sold,,,https://www.redfin.com/MA/Boston/8-Battery-St-02109/unit-6/home/9270793,MLS PIN,72938265,N,Y,42.366399,-71.0524428
PAST SALE,March-15-2022,Condo/Co-op,110 Broad St #502,Boston,MA,02110,1975000,2,2.5,Waterfront,1520,,2018,4,1299,1076,Sold,,,https://www.redfin.com/MA/Boston/110-Broad-St-02110/unit-502/home/112897001,MLS PIN,72924810,N,Y,42.3573892,-71.0520518
PAST SALE,February-25-2022,Condo/Co-op,42 8Th St #1303,Boston,MA,02129,650000,2,1.5,Charlestown's Navy Yard,969,,1899,22,671,613,Sold,,,https://www.redfin.com/MA/Charlestown/42-8th-St-02129/unit-1303/home/9328305,MLS PIN,72930819,N,Y,42.3750453,-71.0526553
PAST SALE,January-21-2022,Townhouse,23 Wenlock Rd #23,Boston,MA,02122,475000,2,1.5,Boston,1208,1208,1986,57,393,300,Sold,,,https://www.redfin.com/MA/Boston/23-Wenlock-Rd-02122/unit-23/home/113246181,MLS PIN,72926275,N,Y,42.2842675,-71.0485153
PAST SALE,January-19-2022,Townhouse,51B Coffey St Unit B,Boston,MA,02122,900000,3,3.5,Dorchester's Neponset,2015,,2017,59,447,245,Sold,,,https://www.redfin.com/MA/Boston/51-Coffey-St-02122/unit-B/home/177195968,MLS PIN,72920164,N,Y,42.2888938,-71.0483731
PAST SALE,January-25-2022,Condo/Co-op,60 Newbury #6,Quincy,MA,02171,830000,2,2.0,North Quincy,1362,,2021,53,609,434,Sold,,,https://www.redfin.com/MA/Quincy/60-Newbury-St-02171/unit-6/home/177656915,MLS PIN,72928530,N,Y,42.28025,-71.0389355
PAST SALE,January-31-2022,Condo/Co-op,55 Colborne Rd #5,Boston,MA,02135,365000,1,1.0,Boston,600,,1963,47,608,367,Sold,,,https://www.redfin.com/MA/Brighton/55-Colborne-Rd-02135/unit-5/home/9009452,MLS PIN,72927297,N,Y,42.3443279,-71.1470695
PAST SALE,January-31-2022,Condo/Co-op,33 Pond Ave #316,Brookline,MA,02445,425000,1,1.0,Brookline Village,870,,1970,47,489,661,Sold,,,https://www.redfin.com/MA/Brookline/33-Pond-Ave-02445/unit-316/home/11486377,MLS PIN,72876358,N,Y,42.330921,-71.1145397
PAST SALE,December-29-2021,Condo/Co-op,65 E India Row Unit 9E,Boston,MA,02110,762000,1,1.0,Waterfront,885,,1972,80,861,938,Sold,,,https://www.redfin.com/MA/Boston/65-E-India-Row-02110/unit-9E/home/9260718,MLS PIN,72914391,N,Y,42.3576699,-71.0504859
PAST SALE,,Condo/Co-op,100 Lovejoy Wharf Ph 3B,Boston,MA,02114,1670000,2,2.0,,1275,,2017,,1310,,,,,https://www.redfin.com/MA/Boston/100-Lovejoy-Wharf-02114/unit-3B/home/167701832,,,N,Y,42.3671655,-71.0595267
PAST SALE,December-30-2021,Single Family Residential,12-B Rockway St,Boston,MA,02126,445000,4,2.5,Boston,2000,2985,2000,79,223,,Sold,,,https://www.redfin.com/MA/Boston/12B-Rockway-St-02126/home/145602992,MLS PIN,72892009,N,Y,42.2709906,-71.0952733
PAST SALE,February-4-2022,Condo/Co-op,160 Commonwealth Ave #410,Boston,MA,02116,625000,0,1.0,Back Bay,456,456,1881,43,1371,409,Sold,,,https://www.redfin.com/MA/Boston/160-Commonwealth-Ave-02116/unit-410/home/9265238,MLS PIN,72850562,N,Y,42.3513461,-71.0786934
PAST SALE,March-3-2022,Condo/Co-op,11-C Waltham St #1,Boston,MA,02118,750000,1,2.0,South End,917,,1900,16,818,471,Sold,,,https://www.redfin.com/MA/Boston/11C-Waltham-St-02118/unit-1/home/12308070,MLS PIN,72896024,N,Y,42.3412527,-71.0680925
PAST SALE,March-10-2022,Condo/Co-op,67 Saint Botolph St #3,Boston,MA,02116,1739000,2,2.0,Back Bay,1400,,1899,9,1242,337,Sold,,,https://www.redfin.com/MA/Boston/67-St-Botolph-St-02116/unit-3/home/146443195,MLS PIN,72939380,N,Y,42.3456603,-71.0802096
PAST SALE,February-17-2022,Condo/Co-op,88 Wareham Unit 2-04,Boston,MA,02118,750000,1,1.0,South End,809,,2020,30,927,844,Sold,,,https://www.redfin.com/MA/Boston/88-Wareham-St-02118/unit-204/home/171787547,MLS PIN,72930800,N,Y,42.3388561,-71.0667846
PAST SALE,January-21-2022,Condo/Co-op,1 Dalton St #4304,Boston,MA,02115,3400000,2,2.5,Boston,1357,,2019,57,2506,3347,Sold,,,https://www.redfin.com/MA/Boston/1-Dalton-St-02199/unit-4304/home/175644795,MLS PIN,72921430,N,Y,42.3455258,-71.0840518
PAST SALE,January-3-2022,Condo/Co-op,1950 Washington St Unit 4F,Boston,MA,02118,499000,0,1.0,South End,517,,2021,75,965,270,Sold,,,https://www.redfin.com/MA/Boston/1950-Washington-St-02118/unit-4F/home/176907564,MLS PIN,72912165,N,Y,42.3341156,-71.0795923
PAST SALE,January-31-2022,Condo/Co-op,1950 Washington St Unit 3C,Boston,MA,02118,903000,2,2.0,South End,1112,,2021,47,812,460,Sold,,,https://www.redfin.com/MA/Boston/1950-Washington-St-02118/unit-3C/home/176972787,MLS PIN,72912953,N,Y,42.3341156,-71.0795923
PAST SALE,January-28-2022,Condo/Co-op,29 Commonwealth Ave #6,Boston,MA,02116,10350000,3,3.5,Back Bay,3097,,1894,50,3342,5794,Sold,,,https://www.redfin.com/MA/Boston/29-Commonwealth-Ave-02116/unit-6/home/177724344,MLS PIN,72929815,N,Y,42.3534009,-71.0743368
PAST SALE,January-18-2022,Townhouse,145 Warren Unit 2-PH,Boston,MA,02116,6050000,5,4.5,Boston,3361,,1900,60,1800,520,Sold,,,https://www.redfin.com/MA/Boston/145-Warren-Ave-02116/unit-2-PH/home/177904497,MLS PIN,72934702,N,Y,42.344296,-71.0752073
PAST SALE,March-14-2022,Condo/Co-op,15 Cazenove #3,Boston,MA,02116,710000,1,1.0,South End,537,,1900,5,1322,187,Sold,,,https://www.redfin.com/MA/Boston/15-Cazenove-St-02116/unit-3/home/9303954,MLS PIN,72916658,N,Y,42.347147,-71.0728763
PAST SALE,March-15-2022,Condo/Co-op,1180 Washington St #202,Boston,MA,02118,900000,1,1.0,South End,1066,1066,1999,4,844,483,Sold,,,https://www.redfin.com/MA/Boston/1180-Washington-St-02118/unit-202/home/9301862,MLS PIN,72939117,N,Y,42.34283,-71.0667827
PAST SALE,December-21-2021,Multi-Family (5+ Unit),35 Grove St,Boston,MA,02114,4550000,15,12.5,Beacon Hill,6400,1700,1899,88,711,,Sold,,,https://www.redfin.com/MA/Boston/35-Grove-St-02114/home/9257252,MLS PIN,72909209,N,Y,42.3599411,-71.0688353
PAST SALE,February-1-2022,Condo/Co-op,25 Phillips St Unit A,Boston,MA,02114,828750,2,1.0,Beacon Hill,969,969,1885,46,855,196,Sold,,,https://www.redfin.com/MA/Boston/25-Phillips-St-02114/unit-A/home/9258655,MLS PIN,72898056,N,Y,42.3604164,-71.0674889
PAST SALE,January-10-2022,Condo/Co-op,191 Bunker Hill St #206,Boston,MA,02129,585000,2,1.0,Charlestown,873,,1960,68,670,202,Sold,,,https://www.redfin.com/MA/Charlestown/191-Bunker-Hill-St-02129/unit-206/home/9046070,MLS PIN,72905550,N,Y,42.3788399,-71.0616159
PAST SALE,February-18-2022,Condo/Co-op,197 Eighth St #510,Boston,MA,02129,1549000,2,2.5,Charlestown's Navy Yard,1860,,1989,29,833,1774,Sold,,,https://www.redfin.com/MA/Boston/197-8th-St-02129/unit-510/home/9050047,MLS PIN,72932681,N,Y,42.3734076,-71.0521911
PAST SALE,December-31-2021,Multi-Family (2-4 Unit),41 Bartlett St,Boston,MA,02129,2385000,6,4.0,Charlestown,3338,3920,1950,78,714,,Sold,,,https://www.redfin.com/MA/Charlestown/41-Bartlett-St-02129/home/9061053,MLS PIN,72902697,N,Y,42.3780419,-71.0631084
PAST SALE,January-20-2022,Single Family Residential,36 High St,Boston,MA,02129,2749500,5,4.0,Monument Square/Gaslight District,5235,1589,1875,58,525,,Sold,,,https://www.redfin.com/MA/Boston/36-High-St-02129/home/9062603,MLS PIN,72924268,N,Y,42.3760976,-71.0626141
PAST SALE,February-15-2022,Condo/Co-op,386 Commercial St Unit 2B,Boston,MA,02109,422000,0,1.0,Waterfront,380,,1900,32,1111,229,Sold,,,https://www.redfin.com/MA/Boston/386-Commercial-St-02109/unit-2B/home/9270701,MLS PIN,72927118,N,Y,42.3665548,-71.0519357
PAST SALE,,Condo/Co-op,33 Park St #33,Boston,MA,02129,2100000,3,3.0,,2240,,2013,,938,,,,,https://www.redfin.com/MA/Boston/33-Park-St-02129/unit-33/home/85680715,,,N,Y,42.3729478,-71.0607662
PAST SALE,February-23-2022,Condo/Co-op,99 Sumner Unit U: 408,Boston,MA,02128,489900,1,1.0,East Boston,445,,2021,24,1101,374,Sold,,,https://www.redfin.com/MA/Boston/99-Sumner-St-02128/unit-U-408/home/175859709,MLS PIN,72931372,N,Y,42.3699046,-71.0422875
PAST SALE,February-11-2022,Multi-Family (2-4 Unit),148 Talbot Ave,Boston,MA,02124,1040000,10,3.0,Dorchester,2566,3861,1925,36,405,,Sold,,,https://www.redfin.com/MA/Boston/148-Talbot-Ave-02124/home/9063399,MLS PIN,72931793,N,Y,42.2928934,-71.0805346
PAST SALE,February-7-2022,Single Family Residential,558 Ashmont,Boston,MA,02122,659000,3,1.0,Dorchester's Neponset,1250,4150,1915,40,527,,Sold,,,https://www.redfin.com/MA/Dorchester/558-Ashmont-St-02122/home/9094664,MLS PIN,72924006,N,Y,42.2895689,-71.0510536
PAST SALE,December-29-2021,Single Family Residential,28 Granite Ave,Boston,MA,02124,640000,3,2.0,Dorchester,1278,5965,1900,80,501,,Sold,,,https://www.redfin.com/MA/Boston/28-Granite-Ave-02124/home/9105086,MLS PIN,72914392,N,Y,42.2819704,-71.0552044
PAST SALE,January-28-2022,Condo/Co-op,69 Worcester St #2,Boston,MA,02118,689500,1,1.0,South End,680,1980,1859,50,1014,275,Sold,,,https://www.redfin.com/MA/Boston/69-Worcester-St-02118/unit-2/home/9286621,MLS PIN,72901999,N,Y,42.3393206,-71.077598
PAST SALE,February-4-2022,Condo/Co-op,128 Cushing Ave #3,Boston,MA,02125,534850,3,1.0,Dorchester,1133,,1905,43,472,204,Sold,,,https://www.redfin.com/MA/Dorchester/128-Cushing-Ave-02125/unit-3/home/9311835,MLS PIN,72917217,N,Y,42.3130343,-71.0611749
PAST SALE,January-3-2022,Condo/Co-op,37 Quincy St #1,Boston,MA,02121,355000,3,1.0,Dorchester,957,957,1905,75,371,200,Sold,,,https://www.redfin.com/MA/Boston/37-Quincy-St-02121/unit-1/home/12431047,MLS PIN,72899361,N,Y,42.3156092,-71.0810453
PAST SALE,January-31-2022,Condo/Co-op,34 Deckard St #1,Boston,MA,02121,415000,3,2.0,Boston,1470,1560,1890,47,282,300,Sold,,,https://www.redfin.com/MA/Boston/34-Deckard-St-02121/unit-1/home/21717354,MLS PIN,72898296,N,Y,42.3157489,-71.0851307
PAST SALE,,Condo/Co-op,241 Norfolk St Unit E,Boston,MA,02124,237600,3,1.5,,1369,,1988,,174,,,,,https://www.redfin.com/MA/Boston/241-Norfolk-St-02124/unit-E/home/9064371,,,N,Y,42.284615,-71.0809944
PAST SALE,March-9-2022,Single Family Residential,60 Hartford St,Boston,MA,02125,750000,6,2.0,Boston,2658,2904,1910,10,282,,Sold,,,https://www.redfin.com/MA/Boston/60-Hartford-St-02125/home/9071079,MLS PIN,72923076,N,Y,42.3145941,-71.0729206
PAST SALE,February-25-2022,Condo/Co-op,510-512 Dorchester Ave Unit 3R,Boston,MA,02127,1030000,3,2.0,South Boston,1619,,2019,22,636,235,Sold,,,https://www.redfin.com/MA/Boston/510-Dorchester-Ave-02127/unit-3R/home/163761936,MLS PIN,72775337,N,Y,42.3317163,-71.0567708
PAST SALE,January-20-2022,Condo/Co-op,10 Taber St #203,Boston,MA,02119,420000,1,1.0,Roxbury,687,,2021,58,611,475,Sold,,,https://www.redfin.com/MA/Boston/10-Taber-St-02119/unit-203/home/176101695,MLS PIN,72880420,N,Y,42.3300999,-71.0831886
PAST SALE,January-20-2022,Condo/Co-op,485 Ashmont St #1,Boston,MA,02122,691000,2,2.5,Dorchester's Ashmont,1469,,2021,58,470,260,Sold,,,https://www.redfin.com/MA/Dorchester/485-Ashmont-St-02122/unit-1/home/176155251,MLS PIN,72895858,N,Y,42.2885534,-71.053375
PAST SALE,January-21-2022,Townhouse,408 Seaver St Unit 2PH,Boston,MA,02121,479000,5,2.0,Dorchester,1900,1900,1905,57,252,290,Sold,,,https://www.redfin.com/MA/Boston/408-Seaver-St-02121/unit-2PH/home/176771410,MLS PIN,72910178,N,Y,42.3035051,-71.0810917
PAST SALE,February-28-2022,Condo/Co-op,10 Taber St #204,Boston,MA,02119,412000,1,1.0,Roxbury,669,999999,2021,19,616,445,Sold,,,https://www.redfin.com/MA/Boston/10-Taber-St-02119/unit-204/home/177168849,MLS PIN,72919363,N,Y,42.3300999,-71.0831886
PAST SALE,January-20-2022,Condo/Co-op,20 W 5th Unit 5I,Boston,MA,02127,1300000,2,2.0,Boston,1176,19000,2021,58,1105,733,Sold,,,https://www.redfin.com/MA/Boston/20-W-Fifth-St-02127/unit-5I/home/177920724,MLS PIN,72935540,N,Y,42.3401966,-71.0561353
PAST SALE,December-22-2021,Parking,1313 Washington St U4A & U4B,Boston,MA,02118,125000,,,South End,,1,,87,,,Sold,,,https://www.redfin.com/MA/Boston/1313-Washington-St-02118/unit-102/home/9316438,MLS PIN,72856298,N,Y,42.3421555,-71.0684871
PAST SALE,December-21-2021,Condo/Co-op,90 Antwerp #202,Boston,MA,02135,600000,2,1.0,Allston,852,,2021,88,704,486,Sold,,,https://www.redfin.com/MA/Boston/90-Antwerp-St-02135/unit-202/home/175009187,MLS PIN,72820363,N,Y,42.36117,-71.139454
PAST SALE,December-30-2021,Townhouse,254 Medford St #4,Boston,MA,02129,375000,1,1.0,Charlestown,435,,1899,79,862,114,Sold,,,https://www.redfin.com/MA/Boston/254-Medford-St-02129/unit-4/home/9318145,MLS PIN,72910941,N,Y,42.3805326,-71.0613282
PAST SALE,December-21-2021,Condo/Co-op,9 Allston St #1,Boston,MA,02129,535000,1,1.0,Charlestown,715,,1885,88,748,200,Sold,,,https://www.redfin.com/MA/Boston/9-Allston-St-02129/unit-1/home/11512115,MLS PIN,72900631,N,Y,42.3799242,-71.0637284
PAST SALE,March-14-2022,Condo/Co-op,24 High View Ave #24,Boston,MA,02132,818000,4,4.5,West Roxbury,2910,6000,2006,5,281,202,Sold,,,https://www.redfin.com/MA/Boston/24-High-View-Ave-02132/unit-24/home/113244428,MLS PIN,72937318,N,Y,42.2672628,-71.1521673
PAST SALE,December-29-2021,Condo/Co-op,120 W 7th St #305,Boston,MA,02127,750000,2,2.0,South Boston,1066,1066,1910,80,704,330,Sold,,,https://www.redfin.com/MA/Boston/120-W-Seventh-St-02127/unit-305/home/9318553,MLS PIN,72925026,N,Y,42.3360905,-71.0529803
PAST SALE,December-27-2021,Condo/Co-op,1950 Washington St Unit 3A,Boston,MA,02118,790000,2,2.0,South End,1081,,2021,82,731,444,Sold,,,https://www.redfin.com/MA/Boston/1950-Washington-St-02118/unit-3A/home/175983523,MLS PIN,72877014,N,Y,42.3341124,-71.0796055
PAST SALE,December-21-2021,Multi-Family (2-4 Unit),40 Waumbeck St,Boston,MA,02121,815000,6,3.0,Roxbury,3170,5309,1900,88,257,,Sold,,,https://www.redfin.com/MA/Boston/40-Waumbeck-St-02121/home/9086628,MLS PIN,72912401,N,Y,42.3140991,-71.0872198
PAST SALE,December-20-2021,Multi-Family (2-4 Unit),737 Parker St,Boston,MA,02120,2413000,14,6.0,Mission Hill,3217,3000,1900,89,750,,Sold,,,https://www.redfin.com/MA/Boston/737-Parker-St-02120/home/9293439,MLS PIN,72886531,N,Y,42.330887,-71.0976667
PAST SALE,December-27-2021,Condo/Co-op,45 Green St Unit B,Boston,MA,02130,720000,2,1.0,Jamaica Plain,1083,,1899,82,665,250,Sold,,,https://www.redfin.com/MA/Jamaica-Plain/45-Green-St-02130/unit-B/home/176339749,MLS PIN,72891236,N,Y,42.3124262,-71.111694
PAST SALE,December-20-2021,Condo/Co-op,1173 Adams St #201,Boston,MA,02124,730000,2,2.0,Dorchester's Lower Mills,1203,8941,2021,89,607,385,Sold,,,https://www.redfin.com/MA/Boston/1173-Adams-St-02124/unit-201/home/175044246,MLS PIN,72824070,N,Y,42.2727119,-71.0659569
PAST SALE,December-21-2021,Condo/Co-op,351 Beacon St #6,Boston,MA,02116,800000,1,1.0,Back Bay,680,680,1890,88,1176,450,Sold,,,https://www.redfin.com/MA/Boston/351-Beacon-St-02116/unit-6/home/9245207,MLS PIN,72915743,N,Y,42.3521787,-71.0835987
PAST SALE,December-20-2021,Single Family Residential,427 Beacon St,Boston,MA,02115,5025000,4,4.5,Back Bay,3998,1904,1869,89,1257,,Sold,,,https://www.redfin.com/MA/Boston/427-Beacon-St-02115/home/9245508,MLS PIN,72834830,N,Y,42.351366,-71.086571
PAST SALE,December-30-2021,Condo/Co-op,195 Beacon St #4,Boston,MA,02116,532000,1,1.0,Back Bay,438,,1905,79,1215,252,Sold,,,https://www.redfin.com/MA/Boston/195-Beacon-St-02116/unit-4/home/11838808,MLS PIN,72907973,N,Y,42.3540922,-71.076484
PAST SALE,December-21-2021,Condo/Co-op,140 Shawmut Ave Unit 2H,Boston,MA,02118,2075000,3,2.5,South End,1792,,2017,88,1158,1375,Sold,,,https://www.redfin.com/MA/Boston/140-Shawmut-Ave-02118/unit-2H/home/103785587,MLS PIN,72917029,N,Y,42.3459437,-71.06581
PAST SALE,January-20-2022,Condo/Co-op,1 Westinghouse Plz Unit C220,Boston,MA,02136,439000,1,1.0,Hyde Park,1027,1027,1908,58,427,308,Sold,,,https://www.redfin.com/MA/Boston/1-Westinghouse-Plz-02136/unit-C220/home/40352672,MLS PIN,72922982,N,Y,42.2458974,-71.1324114
PAST SALE,January-3-2022,Multi-Family (5+ Unit),42-46 Brackett St,Boston,MA,02135,3400000,24,9.0,Boston,4689,13560,1910,75,725,,Sold,,,https://www.redfin.com/MA/Boston/42-Brackett-St-02135/home/9038083,MLS PIN,72910234,N,Y,42.351684,-71.1652954
PAST SALE,January-28-2022,Condo/Co-op,300 Commercial St #903,Boston,MA,02109,1400000,1,1.0,Boston,912,,1900,50,1535,773,Sold,,,https://www.redfin.com/MA/Boston/300-Commercial-St-02113/unit-903/home/9231691,MLS PIN,72907890,N,Y,42.3650294,-71.0515875
PAST SALE,December-22-2021,Condo/Co-op,28 Dartmouth St #3,Boston,MA,02116,330000,0,1.0,South End,300,,1900,87,1100,164,Sold,,,https://www.redfin.com/MA/Boston/28-Dartmouth-St-02116/unit-3/home/9233207,MLS PIN,72891188,N,Y,42.3437569,-71.0744413
PAST SALE,December-29-2021,Condo/Co-op,16 Holyoke St #2,Boston,MA,02116,849000,1,1.0,South End,750,750,1865,80,1132,108,Sold,,,https://www.redfin.com/MA/Boston/16-Holyoke-St-02116/unit-2/home/9233562,MLS PIN,72919997,N,Y,42.3445888,-71.0779569
PAST SALE,February-24-2022,Single Family Residential,21 S Russell St,Boston,MA,02114,2375000,3,3.5,Beacon Hill,1825,504,1870,23,1301,,Sold,,,https://www.redfin.com/MA/Boston/21-S-Russell-St-02114/home/9244882,MLS PIN,72939398,N,Y,42.3604827,-71.0660845
PAST SALE,March-8-2022,Single Family Residential,97 Pinckney St,Boston,MA,02114,6125000,5,7.0,Beacon Hill,6005,1701,1828,11,1020,,Sold,,,https://www.redfin.com/MA/Boston/97-Pinckney-St-02114/home/9256759,MLS PIN,72928948,N,Y,42.3589261,-71.0693576
PAST SALE,January-20-2022,Condo/Co-op,51 Revere St #4,Boston,MA,02114,869000,1,1.0,Beacon Hill,857,857,1850,58,1014,330,Sold,,,https://www.redfin.com/MA/Boston/51-Revere-St-02114/unit-4/home/9257334,MLS PIN,72914128,N,Y,42.3596068,-71.0682893
PAST SALE,January-7-2022,Condo/Co-op,85 E India Row Unit 17F,Boston,MA,02110,1585000,2,2.5,Waterfront,1638,1635,1972,71,968,1624,Sold,,,https://www.redfin.com/MA/Boston/85-E-India-Row-02110/unit-17F/home/9261529,MLS PIN,72906756,N,Y,42.3581217,-71.0498232
PAST SALE,,Condo/Co-op,90 Chandler St #3,Boston,MA,02116,1480000,1,2.0,,1200,,1885,,1233,,,,,https://www.redfin.com/MA/Boston/90-Chandler-St-02116/unit-3/home/9262891,,,N,Y,42.3463136,-71.0726813
PAST SALE,February-24-2022,Single Family Residential,434 Marlborough St,Boston,MA,02115,4075000,5,3.5,Back Bay,4440,1718,1890,23,918,,Sold,,,https://www.redfin.com/MA/Boston/434-Marlborough-St-02115/home/9270314,MLS PIN,72869676,N,Y,42.3496838,-71.089866
PAST SALE,January-13-2022,Condo/Co-op,416 Commonwealth Ave #508,Boston,MA,02215,915000,1,1.5,Back Bay,953,953,1910,65,960,540,Sold,,,https://www.redfin.com/MA/Boston/416-Commonwealth-Ave-02215/unit-508/home/9271659,MLS PIN,72890464,N,Y,42.348586,-71.091285
PAST SALE,March-7-2022,Condo/Co-op,127 Pembroke St #2,Boston,MA,02118,710500,1,1.0,South End,831,831,1890,12,855,196,Sold,,,https://www.redfin.com/MA/Boston/127-Pembroke-St-02118/unit-2/home/9282801,MLS PIN,72926429,N,Y,42.3430085,-71.0770179
PAST SALE,,Condo/Co-op,7 Ringgold St #2,Boston,MA,02118,1365000,2,2.5,,942,,1890,,1449,,,,,https://www.redfin.com/MA/Boston/7-Ringgold-St-02118/unit-2/home/9320248,,,N,Y,42.3431048,-71.0697522
PAST SALE,February-1-2022,Condo/Co-op,301 Berkeley Unit 2B,Boston,MA,02116,2275000,2,2.0,Back Bay,1500,,1923,46,1517,1733,Sold,,,https://www.redfin.com/MA/Boston/301-Berkeley-St-02116/unit-2B/home/11921751,MLS PIN,72898302,N,Y,42.354366,-71.0743368
PAST SALE,March-7-2022,Townhouse,105 Beacon #1,Boston,MA,02116,435000,0,1.0,Back Bay,415,1200,1920,12,1048,192,Sold,,,https://www.redfin.com/MA/Boston/105-Beacon-St-02116/unit-1/home/12440355,MLS PIN,72898675,N,Y,42.355041,-71.072964
PAST SALE,March-9-2022,Condo/Co-op,485 Harrison Ave #409,Boston,MA,02118,1315000,2,2.0,South End,1388,,1914,10,947,845,Sold,,,https://www.redfin.com/MA/Boston/485-Harrison-Ave-02118/unit-409/home/9320211,MLS PIN,72938904,N,Y,42.3420127,-71.0664456
PAST SALE,February-1-2022,Condo/Co-op,133 Seaport Blvd #1815,Boston,MA,02210,1208000,1,1.5,Seaport District,812,,2019,46,1488,1162,Sold,,,https://www.redfin.com/MA/Boston/133-Seaport-Blvd-02210/unit-1815/home/170550685,MLS PIN,72914802,N,Y,42.3505253,-71.0436017
PAST SALE,December-27-2021,Condo/Co-op,90 Antwerp #304,Boston,MA,02135,1000000,3,2.0,Allston,1802,,2021,82,555,706,Sold,,,https://www.redfin.com/MA/Boston/90-Antwerp-St-02135/unit-304/home/175090048,MLS PIN,72826980,N,Y,42.36117,-71.139454
PAST SALE,February-3-2022,Condo/Co-op,133 Seaport Blvd #522,Boston,MA,02210,2295000,2,2.5,Seaport District,1249,,2019,44,1837,2373,Sold,,,https://www.redfin.com/MA/Boston/133-Seaport-Blvd-02210/unit-522/home/175537652,MLS PIN,72925251,N,Y,42.3505253,-71.0436017
PAST SALE,January-11-2022,Condo/Co-op,380 Harrison Ave #1023,Boston,MA,02118,939800,1,1.0,South End,727,,2021,67,1293,844,Sold,,,https://www.redfin.com/MA/Boston/380-Harrison-Ave-02118/unit-1023/home/177183389,MLS PIN,72919815,N,Y,42.3435586,-71.0636587
PAST SALE,February-28-2022,Condo/Co-op,574-580 Tremont St #7,Boston,MA,02118,410000,0,1.0,South End,414,414,1905,19,990,273,Sold,,,https://www.redfin.com/MA/Boston/574-580-Tremont-St-02118/unit-7/home/177801038,MLS PIN,72930592,N,Y,42.3431096,-71.0726739
PAST SALE,February-11-2022,Condo/Co-op,100 Shawmut Ave #807,Boston,MA,02118,1550150,2,2.0,South End,1028,,2021,36,1508,1176,Sold,,,https://www.redfin.com/MA/Boston/100-Shawmut-Ave-02118/unit-807/home/178119284,MLS PIN,72938230,N,Y,42.3466841,-71.0656551
PAST SALE,February-28-2022,Condo/Co-op,2 Phillips #4,Boston,MA,02114,585000,1,1.0,Beacon Hill,710,,1899,19,824,300,Sold,,,https://www.redfin.com/MA/Boston/2-Phillips-St-02114/unit-4/home/11836900,MLS PIN,72870597,N,Y,42.3602372,-71.0664947
PAST SALE,March-4-2022,Condo/Co-op,49 Melcher St #306,Boston,MA,02210,819000,1,1.0,Seaport District,868,,1916,15,944,683,Sold,,,https://www.redfin.com/MA/Boston/49-Melcher-St-02210/unit-306/home/178198371,MLS PIN,72938913,N,Y,42.349393,-71.0501922
PAST SALE,,Condo/Co-op,41 Amherst St #41,Boston,MA,02131,720000,4,2.5,,2133,,1910,,338,,,,,https://www.redfin.com/MA/Boston/41-Amherst-St-02131/unit-41/home/9166698,,,N,Y,42.2857183,-71.1328277
PAST SALE,December-29-2021,Single Family Residential,25 Denton Ter,Boston,MA,02131,755000,3,2.0,Roslindale,1556,4000,1910,80,485,,Sold,,,https://www.redfin.com/MA/Roslindale/25-Denton-Ter-02131/home/9177202,MLS PIN,72910460,N,Y,42.2798705,-71.1328872
PAST SALE,December-23-2021,Multi-Family (2-4 Unit),25 Maplewood St,Boston,MA,02132,875000,5,2.0,West Roxbury,2132,19449,1965,86,410,,Sold,,,https://www.redfin.com/MA/Boston/25-Maplewood-St-02132/home/9215378,MLS PIN,72909732,N,Y,42.271125,-71.1484659
PAST SALE,December-28-2021,Condo/Co-op,160 Salem St #6,Boston,MA,02113,425000,1,1.0,North End,497,,1910,81,855,316,Sold,,,https://www.redfin.com/MA/Boston/160-Salem-St-02113/unit-6/home/9277876,MLS PIN,72815936,N,Y,42.3658826,-71.0551473
PAST SALE,,Condo/Co-op,37 Beacon St #46,Boston,MA,02108,825000,1,1.0,,770,,1920,,1071,,,,,https://www.redfin.com/MA/Boston/37-Beacon-St-02108/unit-46/home/9259010,,,N,Y,42.3572906,-71.0656765
PAST SALE,,Condo/Co-op,2 Battery Wharf #4402,Boston,MA,02109,1425000,1,1.5,,1535,,2008,,928,,,,,https://www.redfin.com/MA/Boston/2-Battery-Wharf-02109/unit-4402/home/39912662,,,N,Y,42.3666877,-71.0514604
PAST SALE,December-23-2021,Condo/Co-op,1 Franklin St #5306,Boston,MA,02110,5250000,3,3.5,Midtown,2663,,2016,86,1971,3627,Sold,,,https://www.redfin.com/MA/Boston/1-Franklin-St-02110/unit-5306/home/145254702,MLS PIN,72924979,N,Y,42.3557261,-71.0592362
PAST SALE,December-30-2021,Single Family Residential,17 Moultrie St,Boston,MA,02124,640000,5,2.5,Boston,1965,4435,1925,79,326,,Sold,,,https://www.redfin.com/MA/Boston/17-Moultrie-St-02124/home/9079242,MLS PIN,72866052,N,Y,42.2919586,-71.0687425
PAST SALE,December-30-2021,Multi-Family (2-4 Unit),29-29A Hazelton St,Boston,MA,02126,875000,4,2.5,Boston,3115,7500,1920,79,281,,Sold,,,https://www.redfin.com/MA/Mattapan/29-Hazleton-St-02126/unit-29A/home/9162292,MLS PIN,72911739,N,Y,42.2794342,-71.0944619
PAST SALE,February-4-2022,Condo/Co-op,42 Van Winkle St #4,Boston,MA,02124,519000,2,1.0,Dorchester's Ashmont,1228,,1900,43,423,275,Sold,,,https://www.redfin.com/MA/Boston/42-Van-Winkle-St-02124/unit-4/home/12430944,MLS PIN,72934928,N,Y,42.2827587,-71.0634034
PAST SALE,January-25-2022,Condo/Co-op,1241-1255 Adams Unit B608,Boston,MA,02124,1400000,2,2.5,Dorchester,2732,,1900,53,512,1589,Sold,,,https://www.redfin.com/MA/Boston/1241-Adams-St-02124/unit-B608/home/39913846,MLS PIN,72925672,N,Y,42.2713651,-71.0686092
PAST SALE,February-28-2022,Townhouse,14. Lena Ter #1,Boston,MA,02126,660000,3,2.0,Mattapan,2300,,2021,19,287,350,Sold,,,https://www.redfin.com/MA/Boston/14-Lena-Ter-02126/unit-1/home/174479250,MLS PIN,72928542,N,Y,42.2778996,-71.0853432
PAST SALE,February-14-2022,Condo/Co-op,1666 Commonwealth Ave #46,Boston,MA,02135,409000,1,1.0,Brighton,609,,1925,33,672,274,Sold,,,https://www.redfin.com/MA/Boston/1666-Commonwealth-Ave-02135/unit-46/home/9019065,MLS PIN,72930345,N,Y,42.3416174,-71.1445499
PAST SALE,January-7-2022,Condo/Co-op,57 Bigelow St #2,Boston,MA,02135,995000,3,2.5,Brighton,1592,,2021,71,625,325,Sold,,,https://www.redfin.com/MA/Brighton/57-Bigelow-St-02135/unit-2/home/176650475,MLS PIN,72900150,N,Y,42.3539267,-71.1672707
PAST SALE,February-8-2022,Multi-Family (2-4 Unit),264 Maverick St,Boston,MA,02128,1161500,6,3.0,East Boston's Jeffries Point,3156,1924,1900,39,368,,Sold,,,https://www.redfin.com/MA/Boston/264-Maverick-St-02128/home/9115749,MLS PIN,72926913,N,Y,42.3679898,-71.0335845
PAST SALE,January-31-2022,Multi-Family (2-4 Unit),186 Chelsea,Boston,MA,02128,1100000,9,3.0,East Boston,3984,2657,1900,47,276,,Sold,,,https://www.redfin.com/MA/Boston/186-Chelsea-St-02128/home/9117213,MLS PIN,72874858,N,Y,42.3744749,-71.033855
PAST SALE,January-31-2022,Condo/Co-op,357 Commercial St #206,Boston,MA,02109,700000,2,1.5,Waterfront,1028,1028,1900,47,681,472,Sold,,,https://www.redfin.com/MA/Boston/357-Commercial-St-02109/unit-206/home/9230222,MLS PIN,72807246,N,Y,42.3660676,-71.0508937
PAST SALE,March-1-2022,Condo/Co-op,42 8th St #3105,Boston,MA,02129,689000,2,2.0,Charlestown's Navy Yard,927,,1899,18,743,776,Sold,,,https://www.redfin.com/MA/Charlestown/42-8th-St-02129/unit-3105/home/9327408,MLS PIN,72894356,N,Y,42.3750453,-71.0526553
PAST SALE,January-12-2022,Condo/Co-op,647 Bennington St #1,Boston,MA,02128,460000,3,2.0,East Boston,1350,,1875,66,341,200,Sold,,,https://www.redfin.com/MA/Boston/647-Bennington-St-02128/unit-1/home/174939347,MLS PIN,72913594,N,Y,42.3835115,-71.015302
PAST SALE,February-1-2022,Townhouse,82 Wordsworth St #82,Boston,MA,02128,647000,3,2.5,East Boston,1563,,2016,46,414,175,Sold,,,https://www.redfin.com/MA/East-Boston/82-Wordsworth-St-02128/unit-82/home/176225443,MLS PIN,72887091,N,Y,42.3847436,-71.0159985
PAST SALE,February-22-2022,Condo/Co-op,42 8th St #2512,Boston,MA,02129,740000,2,2.0,Charlestown's Navy Yard,1005,,1899,25,736,830,Sold,,,https://www.redfin.com/MA/Charlestown/42-8th-St-02129/unit-2512/home/9328385,MLS PIN,72930529,N,Y,42.3750453,-71.0526553
PAST SALE,January-24-2022,Single Family Residential,29 Algonquin St,Boston,MA,02124,575000,6,1.5,Dorchester,2688,4794,1890,54,214,,Sold,,,https://www.redfin.com/MA/Boston/29-Algonquin-St-02124/home/9065415,MLS PIN,72904418,N,Y,42.2977456,-71.0747779
PAST SALE,February-18-2022,Multi-Family (2-4 Unit),68 HOMESTEAD St,Boston,MA,02121,850000,5,3.5,Dorchester,3731,8100,1900,29,228,,Sold,,,https://www.redfin.com/MA/Boston/68-Homestead-St-02121/home/9092886,MLS PIN,72885138,N,Y,42.3125454,-71.091398
PAST SALE,January-24-2022,Condo/Co-op,40 Cushing Ave #5,Boston,MA,02125,350000,1,1.0,Dorchester's Uphams Corner,682,682,1900,54,513,206,Sold,,,https://www.redfin.com/MA/Boston/40-Cushing-Ave-02125/unit-5/home/9326281,MLS PIN,72885891,N,Y,42.3151641,-71.0644016
PAST SALE,January-4-2022,Townhouse,408 Seaver #3,Boston,MA,02121,422000,4,2.0,Dorchester's Mount Bowdoin,2004,,1905,74,211,290,Sold,,,https://www.redfin.com/MA/Boston/408-Seaver-St-02121/unit-3/home/12431061,MLS PIN,72876601,N,Y,42.3035056,-71.081091
PAST SALE,January-28-2022,Condo/Co-op,47 Sargent St #1,Boston,MA,02125,600000,2,2.0,Dorchester,1213,,2019,50,495,195,Sold,,,https://www.redfin.com/MA/Boston/47-Sargent-St-02125/unit-1/home/168984821,MLS PIN,72924787,N,Y,42.3147593,-71.0737797
PAST SALE,,Condo/Co-op,10 Copeland Park Unit 10C,Boston,MA,02119,702000,3,1.5,,1452,,2017,,483,,,,,https://www.redfin.com/MA/Boston/10-Copeland-Park-02119/unit-10C/home/171582066,,,N,Y,42.3229218,-71.0793057
PAST SALE,January-7-2022,Condo/Co-op,10 Taber St #201,Boston,MA,02119,630000,2,1.0,Roxbury,985,,2021,71,640,657,Sold,,,https://www.redfin.com/MA/Boston/10-Taber-St-02119/unit-201/home/175531218,MLS PIN,72853998,N,Y,42.3300999,-71.0831886
PAST SALE,February-3-2022,Condo/Co-op,359 Park St #5,Boston,MA,02124,437000,2,1.0,Boston,752,,1899,44,581,175,Sold,,,https://www.redfin.com/MA/Boston/359-Park-St-02124/unit-5/home/175645583,MLS PIN,72930682,N,Y,42.296437,-71.0690674
PAST SALE,December-30-2021,Townhouse,42 Highland St #1,Boston,MA,02119,729000,3,3.5,Roxbury's Fort Hill,1931,,2004,79,378,305,Sold,,,https://www.redfin.com/MA/Roxbury/42-Highland-St-02119/unit-1/home/175978027,MLS PIN,72876871,N,Y,42.3284193,-71.0917644
PAST SALE,January-24-2022,Condo/Co-op,11 Sudan #1,Boston,MA,02125,650000,3,2.0,Dorchester's Savin Hill,1021,2368,1905,54,637,155,Sold,,,https://www.redfin.com/MA/Boston/11-Sudan-St-02125/unit-1/home/177347478,MLS PIN,72923241,N,Y,42.3166193,-71.0560678
PAST SALE,December-27-2021,Condo/Co-op,1 Franklin St #5405,Boston,MA,02108,4000000,3,3.5,Boston,2196,,2016,82,1821,2966,Sold,,,https://www.redfin.com/MA/Boston/1-Franklin-St-02110/unit-5405/home/102546525,MLS PIN,72869332,N,Y,42.3557261,-71.0592362
PAST SALE,December-28-2021,Condo/Co-op,135 Seaport Blvd #2108,Boston,MA,02210,3299000,3,3.5,Seaport District,1605,,2020,81,2055,3800,Sold,,,https://www.redfin.com/MA/Boston/135-Seaport-Blvd-02210/unit-2108/home/174159254,MLS PIN,72927795,N,Y,42.3499499,-71.0435457
PAST SALE,December-21-2021,Condo/Co-op,42-44 Boynton St #3,Boston,MA,02130,630000,3,1.0,Jamaica Plain,1077,,1920,88,585,250,Sold,,,https://www.redfin.com/MA/Boston/42-Boynton-St-02130/unit-3/home/9138155,MLS PIN,72901029,N,Y,42.3055566,-71.1125818
PAST SALE,December-27-2021,Condo/Co-op,4 Harris Ave #2,Boston,MA,02130,610000,3,1.0,Jamaica Plain,1446,,1890,82,422,261,Sold,,,https://www.redfin.com/MA/Boston/4-Harris-Ave-02130/unit-2/home/9310079,MLS PIN,72916045,N,Y,42.3110769,-71.1139594
PAST SALE,December-21-2021,Single Family Residential,8 Atlantic St,Boston,MA,02127,1465000,4,3.5,South Boston,2232,1969,1890,88,656,,Sold,,,https://www.redfin.com/MA/Boston/8-Atlantic-St-02127/home/9191623,MLS PIN,72901702,N,Y,42.3342542,-71.0460392
PAST SALE,December-23-2021,Single Family Residential,10 Summit St,Boston,MA,02136,600000,3,1.5,Hyde Park,1445,6418,1943,86,415,,Sold,,,https://www.redfin.com/MA/Hyde-Park/10-Summit-St-02136/home/9128104,MLS PIN,72915652,N,Y,42.2517368,-71.1097814
PAST SALE,December-20-2021,Single Family Residential,18 Ellis St,Boston,MA,02136,591500,3,2.0,Hyde Park,1468,2615,2008,89,403,,Sold,,,https://www.redfin.com/MA/Boston/18-Ellis-St-02136/home/9131721,MLS PIN,72911562,N,Y,42.2495581,-71.1321359
PAST SALE,December-22-2021,Condo/Co-op,189 CHESTNUT HILL Ave #8,Boston,MA,02135,365000,1,1.0,Brighton's Cleveland Circle,533,,1930,87,685,395,Sold,,,https://www.redfin.com/MA/Brighton/189-Chestnut-Hill-Ave-02135/unit-8/home/9036874,MLS PIN,72924086,N,Y,42.3415051,-71.1549241
PAST SALE,December-28-2021,Condo/Co-op,39 Coffey St #1,Boston,MA,02122,765000,3,3.0,Dorchester,2021,2021,2011,81,379,232,Sold,,,https://www.redfin.com/MA/Dorchester/39-Coffey-St-02122/unit-1/home/40397484,MLS PIN,72864452,N,Y,42.2887217,-71.0494163
PAST SALE,December-20-2021,Multi-Family (2-4 Unit),856 Saratoga St,Boston,MA,02128,815000,5,2.0,East Boston,2244,2500,1910,89,363,,Sold,,,https://www.redfin.com/MA/Boston/856-Saratoga-St-02128/home/9114764,MLS PIN,72850771,N,Y,42.3853234,-71.0135382
PAST SALE,December-28-2021,Condo/Co-op,175 wordsworth #3,Boston,MA,02128,565000,2,2.0,Boston,915,,1910,81,617,250,Sold,,,https://www.redfin.com/MA/Boston/175-Wordsworth-St-02128/unit-3/home/176074749,MLS PIN,72879333,N,Y,42.3819985,-71.0140484
PAST SALE,December-22-2021,Condo/Co-op,25 Park Vale Ave #1,Boston,MA,02134,639000,3,1.5,Allston,1116,,1948,87,573,496,Sold,,,https://www.redfin.com/MA/Boston/25-Park-Vale-Ave-02134/unit-1/home/8996026,MLS PIN,72913926,N,Y,42.3518129,-71.1328685
PAST SALE,December-20-2021,Condo/Co-op,1568 Commonwealth Ave Unit B,Boston,MA,02135,510000,5,1.5,Brighton,1391,,1920,89,367,509,Sold,,,https://www.redfin.com/MA/Boston/1568-Commonwealth-Ave-02135/unit-B/home/9017041,MLS PIN,72861320,N,Y,42.3438801,-71.1422124
PAST SALE,December-22-2021,Condo/Co-op,514 Harvard St Unit 2B & 3B,Brookline,MA,02446,662025,4,2.0,Brookline,1642,,1915,87,403,1208,Sold,,,https://www.redfin.com/MA/Brookline/514-Harvard-St-02446/unit-2B-3B/home/176576882,MLS PIN,72902691,N,Y,42.3481285,-71.1295567
PAST SALE,December-20-2021,Condo/Co-op,65 E India Row Unit 32-G,Boston,MA,02110,896000,1,1.5,Waterfront,1206,,1972,89,743,1337,Sold,,,https://www.redfin.com/MA/Boston/65-E-India-Row-02110/unit-32G/home/9261085,MLS PIN,72895662,N,Y,42.3576699,-71.0504859
PAST SALE,December-21-2021,Single Family Residential,83 Radcliffe Rd,Boston,MA,02136,535500,3,1.5,Boston,1254,3040,1968,88,427,,Sold,,,https://www.redfin.com/MA/Hyde-Park/83-Radcliffe-Rd-02136/home/9164268,MLS PIN,72839331,N,Y,42.2666134,-71.1060677
PAST SALE,January-28-2022,Single Family Residential,34 Halliday St,Boston,MA,02131,585000,3,1.0,Roslindale,988,3000,1936,50,592,,Sold,,,https://www.redfin.com/MA/Roslindale/34-Halliday-St-02131/home/9183462,MLS PIN,72921798,N,Y,42.2873924,-71.1136809
PAST SALE,January-26-2022,Condo/Co-op,50-56 Broadlawn Park #416,Boston,MA,02467,457500,2,2.0,West Roxbury's Chestnut Hill,1165,1165,1974,52,393,727,Sold,,,https://www.redfin.com/MA/Chestnut-Hill/50-56-Broadlawn-Park-02467/unit-416/home/9205369,MLS PIN,72895226,N,Y,42.3023918,-71.1639988
PAST SALE,December-20-2021,Single Family Residential,88 Keystone St,Boston,MA,02132,700000,4,2.5,West Roxbury,1671,6494,1955,89,419,,Sold,,,https://www.redfin.com/MA/West-Roxbury/88-Keystone-St-02132/home/9220041,MLS PIN,72904761,N,Y,42.2682984,-71.1647411
PAST SALE,January-14-2022,Condo/Co-op,13 Oakdale St #2,Boston,MA,02130,502000,2,1.0,Jamaica Plain,826,,1900,64,608,200,Sold,,,https://www.redfin.com/MA/Jamaica-Plain/13-Oakdale-St-02130/unit-2/home/9309972,MLS PIN,72910851,N,Y,42.3121732,-71.107089
PAST SALE,December-28-2021,Condo/Co-op,831 Centre St #2,Boston,MA,02130,990000,3,2.0,Jamaica Plain,1868,,1904,81,530,164,Sold,,,https://www.redfin.com/MA/Boston/831-Centre-St-02130/unit-2/home/11738837,MLS PIN,72918571,N,Y,42.3089643,-71.1181373
PAST SALE,January-20-2022,Condo/Co-op,137 Cornell St #2,Boston,MA,02131,485300,2,1.0,Roslindale,972,972,1940,58,499,200,Sold,,,https://www.redfin.com/MA/Boston/137-Cornell-St-02131/unit-2/home/12441459,MLS PIN,72915502,N,Y,42.2780622,-71.1331309
PAST SALE,March-7-2022,Condo/Co-op,65 Cornwall St #304,Boston,MA,02130,585000,1,1.0,Jamaica Plain,821,15171,2005,12,713,598,Sold,,,https://www.redfin.com/MA/Jamaica-Plain/65-Cornwall-St-02130/unit-304/home/11738463,MLS PIN,72924634,N,Y,42.3125908,-71.1050696
PAST SALE,January-11-2022,Condo/Co-op,8 Robinwood Ave #8,Boston,MA,02130,465000,2,1.0,Jamaica Plain,756,756,1960,67,615,320,Sold,,,https://www.redfin.com/MA/Jamaica-Plain/8-Robinwood-Ave-02130/unit-8/home/176983262,MLS PIN,72913430,N,Y,42.3170223,-71.1128261
PAST SALE,February-25-2022,Condo/Co-op,64 Williams St #1,Boston,MA,02130,490000,2,1.0,Jamaica Plain,1055,1055,1905,22,464,245,Sold,,,https://www.redfin.com/MA/Jamaica-Plain/64-Williams-St-02130/unit-1/home/9314082,MLS PIN,72891308,N,Y,42.3060161,-71.1067176
PAST SALE,February-28-2022,Condo/Co-op,6 Pinedale Rd #1,Boston,MA,02131,440000,2,1.0,Roslindale,926,749,1910,19,475,200,Sold,,,https://www.redfin.com/MA/Boston/6-Pinedale-Rd-02131/unit-1/home/9316229,MLS PIN,72920338,N,Y,42.2777584,-71.1212939
PAST SALE,February-25-2022,Condo/Co-op,9 Mark St #3,Boston,MA,02130,610000,2,1.0,Jamaica Plain,1009,1009,1905,22,605,130,Sold,,,https://www.redfin.com/MA/Boston/9-Mark-St-02130/unit-3/home/11738645,MLS PIN,72931004,N,Y,42.3228301,-71.1090735
